[
    {
        "lat": 37.4603806, 
        "lng": 126.928421, 
        "name": " 서울특별시 관악구 신림동 1693 0 국제산장", 
        "rn": 1108, 
        "typef": "apt"
    }, 
    {
        "lat": 37.5322075, 
        "lng": 127.134262, 
        "name": " 서울특별시 강동구 성내동 386 6 우성102동", 
        "rn": 1742, 
        "typef": "apt"
    }, 
    {
        "lat": 37.5501213, 
        "lng": 127.018578, 
        "name": " 서울특별시 성동구 금호동3가 1662 0 금호한신", 
        "rn": 5045, 
        "typef": "apt"
    }, 
    {
        "lat": 37.647934, 
        "lng": 127.084488, 
        "name": " 서울특별시 노원구 중계동 578 0 현대2(4차)", 
        "rn": 2236, 
        "typef": "apt"
    }, 
    {
        "lat": 37.6160088, 
        "lng": 127.076675, 
        "name": " 서울특별시 중랑구 묵동 168 8 고덕 골든빌(101동)", 
        "rn": 3894, 
        "typef": "apt"
    }, 
    {
        "lat": 37.4965134, 
        "lng": 126.911392, 
        "name": " 서울특별시 영등포구 신길동 4759 0 삼성", 
        "rn": 3911, 
        "typef": "apt"
    }, 
    {
        "lat": 37.5362625, 
        "lng": 127.074547, 
        "name": " 서울특별시 광진구 자양동 783 1 자양우성7", 
        "rn": 5632, 
        "typef": "apt"
    }, 
    {
        "lat": 37.5162057, 
        "lng": 127.0783933, 
        "name": "신천중학교", 
        "rn": 23, 
        "typef": "sch"
    }, 
    {
        "lat": 37.5088463, 
        "lng": 126.853149, 
        "name": " 서울특별시 구로구 고척동 330 0 삼익1", 
        "rn": 1199, 
        "typef": "apt"
    }, 
    {
        "lat": 37.4689751, 
        "lng": 126.941574, 
        "name": " 서울특별시 관악구 신림동 1732 0 서초그린", 
        "rn": 3997, 
        "typef": "apt"
    }, 
    {
        "lat": 37.4799347, 
        "lng": 127.005531, 
        "name": " 서울특별시 서초구 방배동 1002 10 삼환나띠르빌(1002-10)", 
        "rn": 5427, 
        "typef": "apt"
    }, 
    {
        "lat": 37.641777, 
        "lng": 127.039848, 
        "name": " 서울특별시 도봉구 창동 603 25 은성드림존", 
        "rn": 64, 
        "typef": "apt"
    }, 
    {
        "lat": 37.4778025, 
        "lng": 126.9107419, 
        "name": "난곡중학교", 
        "rn": 312, 
        "typef": "sch"
    }, 
    {
        "lat": 37.5861238, 
        "lng": 126.9101142, 
        "name": "연서중학교", 
        "rn": 269, 
        "typef": "sch"
    }, 
    {
        "lat": 37.5370192, 
        "lng": 126.8735297, 
        "name": " 서울특별시 양천구 목동 758 1 강산빌라트", 
        "rn": 484, 
        "typef": "apt"
    }, 
    {
        "lat": 37.5093018, 
        "lng": 126.8418644, 
        "name": " 서울특별시 양천구 신정동 743 2 신정6현대", 
        "rn": 2331, 
        "typef": "apt"
    }, 
    {
        "lat": 37.5158195, 
        "lng": 127.009941, 
        "name": " 서울특별시 서초구 잠원동 56 2 신반포27", 
        "rn": 6244, 
        "typef": "apt"
    }, 
    {
        "lat": 37.4884644, 
        "lng": 127.051384, 
        "name": " 서울특별시 강남구 도곡동 960 0 대림", 
        "rn": 5900, 
        "typef": "apt"
    }, 
    {
        "lat": 37.5414543, 
        "lng": 126.962791, 
        "name": " 서울특별시 용산구 효창동 5 49 효창팰리스2차", 
        "rn": 4110, 
        "typef": "apt"
    }, 
    {
        "lat": 37.4929771, 
        "lng": 126.953499, 
        "name": " 서울특별시 동작구 상도동 411 0 대림아파트.상가", 
        "rn": 3362, 
        "typef": "apt"
    }, 
    {
        "lat": 37.6167526, 
        "lng": 127.078789, 
        "name": " 서울특별시 중랑구 묵동 161 4 삼성", 
        "rn": 664, 
        "typef": "apt"
    }, 
    {
        "lat": 37.6563034, 
        "lng": 127.072876, 
        "name": " 서울특별시 노원구 중계동 445 0 염광", 
        "rn": 2888, 
        "typef": "apt"
    }, 
    {
        "lat": 37.4407616, 
        "lng": 126.90699, 
        "name": " 서울특별시 금천구 시흥동 949 6 거상홈타운701동", 
        "rn": 415, 
        "typef": "apt"
    }, 
    {
        "lat": 37.550869, 
        "lng": 127.029549, 
        "name": " 서울특별시 성동구 응봉동 275 0 신동아", 
        "rn": 3908, 
        "typef": "apt"
    }, 
    {
        "lat": 37.4816818, 
        "lng": 126.940506, 
        "name": " 서울특별시 관악구 봉천동 1522 33 금강아미움(104동)", 
        "rn": 4065, 
        "typef": "apt"
    }, 
    {
        "lat": 37.5374031, 
        "lng": 127.07177, 
        "name": " 서울특별시 광진구 자양동 227 7 더샵스타시티", 
        "rn": 5961, 
        "typef": "apt"
    }, 
    {
        "lat": 37.5146828, 
        "lng": 127.044106, 
        "name": " 서울특별시 강남구 삼성동 11 0 롯데캐슬프레미어", 
        "rn": 6461, 
        "typef": "apt"
    }, 
    {
        "lat": 37.5252647, 
        "lng": 127.140015, 
        "name": " 서울특별시 강동구 둔촌동 174 1 둔촌주공3단지", 
        "rn": 5879, 
        "typef": "apt"
    }, 
    {
        "lat": 37.6466713, 
        "lng": 127.082603, 
        "name": " 서울특별시 노원구 중계동 58 34 이연아마빌레", 
        "rn": 524, 
        "typef": "apt"
    }, 
    {
        "lat": 37.5726166, 
        "lng": 127.031601, 
        "name": " 서울특별시 동대문구 용두동 779 0 신동아", 
        "rn": 2915, 
        "typef": "apt"
    }, 
    {
        "lat": 37.6430664, 
        "lng": 127.024857, 
        "name": " 서울특별시 강북구 수유동 180 31 진명", 
        "rn": 1802, 
        "typef": "apt"
    }, 
    {
        "lat": 37.5033646, 
        "lng": 127.050575, 
        "name": " 서울특별시 강남구 대치동 889 74 아름빌(889-74)", 
        "rn": 5634, 
        "typef": "apt"
    }, 
    {
        "lat": 37.5536423, 
        "lng": 126.831985, 
        "name": " 서울특별시 강서구 내발산동 685 0 태승훼미리2", 
        "rn": 2622, 
        "typef": "apt"
    }, 
    {
        "lat": 37.4864082, 
        "lng": 126.885941, 
        "name": " 서울특별시 구로구 구로동 807 4 (807-4)계영주택", 
        "rn": 677, 
        "typef": "apt"
    }, 
    {
        "lat": 37.4863205, 
        "lng": 127.133446, 
        "name": " 서울특별시 송파구 문정동 113 3 문정그린", 
        "rn": 3523, 
        "typef": "apt"
    }, 
    {
        "lat": 37.5072899, 
        "lng": 126.913696, 
        "name": " 서울특별시 영등포구 신길동 4934 0 삼성래미안", 
        "rn": 3570, 
        "typef": "apt"
    }, 
    {
        "lat": 37.5376778, 
        "lng": 127.093796, 
        "name": " 서울특별시 광진구 구의동 658 0 세양", 
        "rn": 5483, 
        "typef": "apt"
    }, 
    {
        "lat": 37.5787773, 
        "lng": 126.934456, 
        "name": " 서울특별시 서대문구 연희동 743 0 우국한마음", 
        "rn": 1576, 
        "typef": "apt"
    }, 
    {
        "lat": 37.4902382, 
        "lng": 127.120819, 
        "name": " 서울특별시 송파구 가락동 101 4 아키죤II", 
        "rn": 4625, 
        "typef": "apt"
    }, 
    {
        "lat": 37.620369, 
        "lng": 127.080765, 
        "name": " 서울특별시 노원구 공릉동 270 47 청수대아파트", 
        "rn": 737, 
        "typef": "apt"
    }, 
    {
        "lat": 37.5125694, 
        "lng": 126.884201, 
        "name": " 서울특별시 구로구 신도림동 638 0 신도림우성5", 
        "rn": 3296, 
        "typef": "apt"
    }, 
    {
        "lat": 37.6665802, 
        "lng": 127.079514, 
        "name": " 서울특별시 노원구 상계동 1285 0 동아불암", 
        "rn": 2058, 
        "typef": "apt"
    }, 
    {
        "lat": 37.563591, 
        "lng": 127.07135, 
        "name": " 서울특별시 동대문구 장안동 575 0 장안평2차월드메르디앙", 
        "rn": 3050, 
        "typef": "apt"
    }, 
    {
        "lat": 37.5308723, 
        "lng": 127.070686, 
        "name": " 서울특별시 광진구 자양동 793 0 우방리버파크", 
        "rn": 5766, 
        "typef": "apt"
    }, 
    {
        "lat": 37.5663109, 
        "lng": 127.078888, 
        "name": " 서울특별시 광진구 중곡동 191 77 중곡1단지", 
        "rn": 1342, 
        "typef": "apt"
    }, 
    {
        "lat": 37.546402, 
        "lng": 127.140793, 
        "name": " 서울특별시 강동구 천호동 35 12 태천해오름", 
        "rn": 2568, 
        "typef": "apt"
    }, 
    {
        "lat": 37.557106, 
        "lng": 126.856133, 
        "name": " 서울특별시 강서구 등촌동 641 0 신원", 
        "rn": 2246, 
        "typef": "apt"
    }, 
    {
        "lat": 37.5602226, 
        "lng": 127.014679, 
        "name": " 서울특별시 중구 신당동 294 12 타워", 
        "rn": 4090, 
        "typef": "apt"
    }, 
    {
        "lat": 37.519981, 
        "lng": 126.8365553, 
        "name": " 서울특별시 양천구 신월동 29 2 온누리", 
        "rn": 651, 
        "typef": "apt"
    }, 
    {
        "lat": 37.5379868, 
        "lng": 127.133286, 
        "name": " 서울특별시 강동구 천호동 163 14 우정에쉐르102", 
        "rn": 3087, 
        "typef": "apt"
    }, 
    {
        "lat": 37.5658569, 
        "lng": 127.06916, 
        "name": " 서울특별시 동대문구 장안동 360 2 장안SM드림빌(360-2)", 
        "rn": 429, 
        "typef": "apt"
    }, 
    {
        "lat": 37.5593948, 
        "lng": 126.906395, 
        "name": " 서울특별시 마포구 망원동 478 27 미원1", 
        "rn": 3173, 
        "typef": "apt"
    }, 
    {
        "lat": 37.461338, 
        "lng": 126.910416, 
        "name": " 서울특별시 금천구 시흥동 797 2 세종", 
        "rn": 500, 
        "typef": "apt"
    }, 
    {
        "lat": 37.5427322, 
        "lng": 126.954445, 
        "name": " 서울특별시 마포구 신공덕동 172 0 펜트라우스", 
        "rn": 5886, 
        "typef": "apt"
    }, 
    {
        "lat": 37.6082268, 
        "lng": 127.013824, 
        "name": " 서울특별시 성북구 정릉동 210 0 정릉푸른마을동아", 
        "rn": 2260, 
        "typef": "apt"
    }, 
    {
        "lat": 37.5052948, 
        "lng": 127.03949, 
        "name": " 서울특별시 강남구 역삼동 664 21 역삼동프라임", 
        "rn": 2878, 
        "typef": "apt"
    }, 
    {
        "lat": 37.5564842, 
        "lng": 127.141678, 
        "name": " 서울특별시 강동구 암사동 414 2 롯데캐슬퍼스트", 
        "rn": 5579, 
        "typef": "apt"
    }, 
    {
        "lat": 37.5014839, 
        "lng": 126.86348, 
        "name": " 서울특별시 구로구 고척동 326 0 청구", 
        "rn": 2219, 
        "typef": "apt"
    }, 
    {
        "lat": 37.5775337, 
        "lng": 126.911499, 
        "name": " 서울특별시 서대문구 북가좌동 456 0 휴먼빌", 
        "rn": 2794, 
        "typef": "apt"
    }, 
    {
        "lat": 37.5790024, 
        "lng": 127.001045, 
        "name": " 서울특별시 종로구 연건동 60 1 (60-1)", 
        "rn": 3214, 
        "typef": "apt"
    }, 
    {
        "lat": 37.4995499, 
        "lng": 126.960304, 
        "name": " 서울특별시 동작구 흑석동 257 8 한진리버타운", 
        "rn": 676, 
        "typef": "apt"
    }, 
    {
        "lat": 37.5988579, 
        "lng": 127.09388, 
        "name": " 서울특별시 중랑구 상봉동 74 0 한국프라우드", 
        "rn": 1573, 
        "typef": "apt"
    }, 
    {
        "lat": 37.518734, 
        "lng": 126.882507, 
        "name": " 서울특별시 영등포구 문래동6가 47 1 대원", 
        "rn": 3053, 
        "typef": "apt"
    }, 
    {
        "lat": 37.5951653, 
        "lng": 127.014137, 
        "name": " 서울특별시 성북구 동소문동7가 23 0 한신플러스C", 
        "rn": 4283, 
        "typef": "apt"
    }, 
    {
        "lat": 37.5310631, 
        "lng": 127.135368, 
        "name": " 서울특별시 강동구 성내동 596 0 경보그레이스힐", 
        "rn": 3377, 
        "typef": "apt"
    }, 
    {
        "lat": 37.5784187, 
        "lng": 126.889366, 
        "name": " 서울특별시 마포구 상암동 1655 0 상암월드컵파크4단지", 
        "rn": 5938, 
        "typef": "apt"
    }, 
    {
        "lat": 37.5789757, 
        "lng": 126.819176, 
        "name": " 서울특별시 강서구 방화동 860 0 치현마을서광", 
        "rn": 1592, 
        "typef": "apt"
    }, 
    {
        "lat": 37.5054054, 
        "lng": 127.039467, 
        "name": " 서울특별시 강남구 역삼동 777 49 역삼이안애비", 
        "rn": 3981, 
        "typef": "apt"
    }, 
    {
        "lat": 37.647747, 
        "lng": 126.929047, 
        "name": " 서울특별시 은평구 진관동 5 0 상림마을6단지(푸르지오C-5)", 
        "rn": 4306, 
        "typef": "apt"
    }, 
    {
        "lat": 37.5562592, 
        "lng": 127.08429, 
        "name": " 서울특별시 광진구 중곡동 62 68 대영", 
        "rn": 569, 
        "typef": "apt"
    }, 
    {
        "lat": 37.5187016, 
        "lng": 126.8726149, 
        "name": " 서울특별시 양천구 신정동 1300 0 명지해드는터", 
        "rn": 5173, 
        "typef": "apt"
    }, 
    {
        "lat": 37.5682602, 
        "lng": 127.069801, 
        "name": " 서울특별시 동대문구 장안동 364 9 태솔타워", 
        "rn": 4941, 
        "typef": "apt"
    }, 
    {
        "lat": 37.6602478, 
        "lng": 127.078651, 
        "name": " 서울특별시 노원구 중계동 582 0 청암3단지(582)", 
        "rn": 2435, 
        "typef": "apt"
    }, 
    {
        "lat": 37.5506554, 
        "lng": 127.026642, 
        "name": " 서울특별시 성동구 금호동1가 635 0 하나", 
        "rn": 2519, 
        "typef": "apt"
    }, 
    {
        "lat": 37.5392609, 
        "lng": 127.012497, 
        "name": " 서울특별시 용산구 한남동 8 0 시범", 
        "rn": 5258, 
        "typef": "apt"
    }, 
    {
        "lat": 37.4965706, 
        "lng": 126.952103, 
        "name": " 서울특별시 동작구 상도동 472 24 숭실위드", 
        "rn": 2978, 
        "typef": "apt"
    }, 
    {
        "lat": 37.4962578, 
        "lng": 126.847069, 
        "name": " 서울특별시 구로구 오류동 63 4 한가람", 
        "rn": 975, 
        "typef": "apt"
    }, 
    {
        "lat": 37.5528259, 
        "lng": 127.127716, 
        "name": " 서울특별시 강동구 암사동 504 8 한건", 
        "rn": 2407, 
        "typef": "apt"
    }, 
    {
        "lat": 37.6529105, 
        "lng": 127.0318063, 
        "name": "정의여자중학교", 
        "rn": 71, 
        "typef": "sch"
    }, 
    {
        "lat": 37.5400925, 
        "lng": 126.988884, 
        "name": " 서울특별시 용산구 이태원동 729 0 남산대림", 
        "rn": 5815, 
        "typef": "apt"
    }, 
    {
        "lat": 37.4865456, 
        "lng": 127.122711, 
        "name": " 서울특별시 송파구 문정동 55 14 동궁리치웰문정(2차)", 
        "rn": 4855, 
        "typef": "apt"
    }, 
    {
        "lat": 37.5442886, 
        "lng": 127.045853, 
        "name": " 서울특별시 성동구 성수동1가 656 320 동아", 
        "rn": 5315, 
        "typef": "apt"
    }, 
    {
        "lat": 37.5975051, 
        "lng": 127.0199016, 
        "name": "고명중학교", 
        "rn": 121, 
        "typef": "sch"
    }, 
    {
        "lat": 37.5461769, 
        "lng": 126.936722, 
        "name": " 서울특별시 마포구 신수동 455 0 경남아너스빌", 
        "rn": 4703, 
        "typef": "apt"
    }, 
    {
        "lat": 37.5025749, 
        "lng": 126.926308, 
        "name": " 서울특별시 동작구 대방동 391 225 하나마을", 
        "rn": 1371, 
        "typef": "apt"
    }, 
    {
        "lat": 37.5179787, 
        "lng": 126.977409, 
        "name": " 서울특별시 용산구 이촌동 300 261 중앙하이츠(B)", 
        "rn": 3408, 
        "typef": "apt"
    }, 
    {
        "lat": 37.5046806, 
        "lng": 127.016464, 
        "name": " 서울특별시 서초구 반포동 20 43 반포자이", 
        "rn": 6482, 
        "typef": "apt"
    }, 
    {
        "lat": 37.4918442, 
        "lng": 126.992455, 
        "name": " 서울특별시 서초구 방배동 809 26 방배대우멤버스카운티201", 
        "rn": 5773, 
        "typef": "apt"
    }, 
    {
        "lat": 37.4855194, 
        "lng": 127.132103, 
        "name": " 서울특별시 송파구 문정동 112 19 트윈팰리스(102동)", 
        "rn": 4117, 
        "typef": "apt"
    }, 
    {
        "lat": 37.5331268, 
        "lng": 127.139175, 
        "name": " 서울특별시 강동구 둔촌동 631 0 광남캐스빌(631)", 
        "rn": 4404, 
        "typef": "apt"
    }, 
    {
        "lat": 37.6188087, 
        "lng": 127.072624, 
        "name": " 서울특별시 노원구 공릉동 609 3 동아하이빌아파트101동", 
        "rn": 1226, 
        "typef": "apt"
    }, 
    {
        "lat": 37.610199, 
        "lng": 126.927452, 
        "name": " 서울특별시 은평구 대조동 9 45 대경홈타운", 
        "rn": 5839, 
        "typef": "apt"
    }, 
    {
        "lat": 37.4869766, 
        "lng": 127.004677, 
        "name": " 서울특별시 서초구 서초동 1507 38 서초동두산위브2", 
        "rn": 5782, 
        "typef": "apt"
    }, 
    {
        "lat": 37.4779091, 
        "lng": 127.001137, 
        "name": " 서울특별시 서초구 방배동 1019 3 신구블레스밸리", 
        "rn": 4401, 
        "typef": "apt"
    }, 
    {
        "lat": 37.6558037, 
        "lng": 127.071182, 
        "name": " 서울특별시 노원구 상계동 1299 0 양우", 
        "rn": 2700, 
        "typef": "apt"
    }, 
    {
        "lat": 37.5360603, 
        "lng": 126.895477, 
        "name": " 서울특별시 영등포구 양평동4가 78 6 삼성빌라(78-6)", 
        "rn": 1911, 
        "typef": "apt"
    }, 
    {
        "lat": 37.5392876, 
        "lng": 127.081612, 
        "name": " 서울특별시 광진구 자양동 769 1 노블스카이", 
        "rn": 3502, 
        "typef": "apt"
    }, 
    {
        "lat": 37.4929352, 
        "lng": 127.150795, 
        "name": " 서울특별시 송파구 거여동 34 0 메이저A동", 
        "rn": 4076, 
        "typef": "apt"
    }, 
    {
        "lat": 37.5562134, 
        "lng": 127.1343, 
        "name": " 서울특별시 강동구 암사동 445 0 한강포스파크", 
        "rn": 3814, 
        "typef": "apt"
    }, 
    {
        "lat": 37.5808372, 
        "lng": 126.950081, 
        "name": " 서울특별시 서대문구 홍제동 104 1 인왕", 
        "rn": 984, 
        "typef": "apt"
    }, 
    {
        "lat": 37.5547714, 
        "lng": 126.840561, 
        "name": " 서울특별시 강서구 내발산동 731 0 신세계3차101동", 
        "rn": 2413, 
        "typef": "apt"
    }, 
    {
        "lat": 37.5752716, 
        "lng": 127.036026, 
        "name": " 서울특별시 동대문구 용두동 792 0 용두래미안", 
        "rn": 5520, 
        "typef": "apt"
    }, 
    {
        "lat": 37.5597076, 
        "lng": 126.991508, 
        "name": " 서울특별시 중구 예장동 9 0 삼익", 
        "rn": 1567, 
        "typef": "apt"
    }, 
    {
        "lat": 37.6041794, 
        "lng": 127.041, 
        "name": " 서울특별시 성북구 하월곡동 230 0 동일하이빌뉴시티", 
        "rn": 4388, 
        "typef": "apt"
    }, 
    {
        "lat": 37.5258598, 
        "lng": 127.129417, 
        "name": " 서울특별시 강동구 성내동 435 7 광남캐스빌(435-7)", 
        "rn": 2743, 
        "typef": "apt"
    }, 
    {
        "lat": 37.5150414, 
        "lng": 127.012604, 
        "name": " 서울특별시 서초구 잠원동 57 0 대림", 
        "rn": 6190, 
        "typef": "apt"
    }, 
    {
        "lat": 37.5174561, 
        "lng": 126.977249, 
        "name": " 서울특별시 용산구 이촌동 426 0 이촌동삼성리버스위트", 
        "rn": 6259, 
        "typef": "apt"
    }, 
    {
        "lat": 37.5698967, 
        "lng": 127.069016, 
        "name": " 서울특별시 동대문구 장안동 382 2 제이드파크(382-2)", 
        "rn": 1853, 
        "typef": "apt"
    }, 
    {
        "lat": 37.5309296, 
        "lng": 127.037323, 
        "name": " 서울특별시 강남구 압구정동 486 0 한양4", 
        "rn": 6400, 
        "typef": "apt"
    }, 
    {
        "lat": 37.4881287, 
        "lng": 127.060295, 
        "name": " 서울특별시 강남구 개포동 655 1 개포현대200동", 
        "rn": 5851, 
        "typef": "apt"
    }, 
    {
        "lat": 37.4902649, 
        "lng": 126.994583, 
        "name": " 서울특별시 서초구 방배동 849 30 방배롯데캐슬로제", 
        "rn": 6419, 
        "typef": "apt"
    }, 
    {
        "lat": 37.5555649, 
        "lng": 127.070129, 
        "name": " 서울특별시 성동구 송정동 90 0 건영", 
        "rn": 3198, 
        "typef": "apt"
    }, 
    {
        "lat": 37.5528526, 
        "lng": 126.91523, 
        "name": " 서울특별시 마포구 서교동 380 44 대운", 
        "rn": 3825, 
        "typef": "apt"
    }, 
    {
        "lat": 37.5154572, 
        "lng": 126.896065, 
        "name": " 서울특별시 영등포구 문래동3가 54 0 문래자이", 
        "rn": 5437, 
        "typef": "apt"
    }, 
    {
        "lat": 37.519981, 
        "lng": 126.8365553, 
        "name": " 서울특별시 양천구 신월동 1003 4 은일로즈힐", 
        "rn": 971, 
        "typef": "apt"
    }, 
    {
        "lat": 37.6438503, 
        "lng": 127.0099435, 
        "name": "인수중학교", 
        "rn": 248, 
        "typef": "sch"
    }, 
    {
        "lat": 37.5813103, 
        "lng": 126.928337, 
        "name": " 서울특별시 서대문구 홍은동 394 1 신원지벤스타7", 
        "rn": 2048, 
        "typef": "apt"
    }, 
    {
        "lat": 37.5243683, 
        "lng": 126.966293, 
        "name": " 서울특별시 용산구 한강로3가 65 7 시티하우스", 
        "rn": 6407, 
        "typef": "apt"
    }, 
    {
        "lat": 37.5468869, 
        "lng": 126.8672611, 
        "name": " 서울특별시 양천구 목동 956 0 롯데캐슬위너", 
        "rn": 5471, 
        "typef": "apt"
    }, 
    {
        "lat": 37.5472603, 
        "lng": 127.056618, 
        "name": " 서울특별시 성동구 성수동2가 834 0 현대I-PARK", 
        "rn": 4973, 
        "typef": "apt"
    }, 
    {
        "lat": 37.6265373, 
        "lng": 127.030472, 
        "name": " 서울특별시 강북구 미아동 1352 0 미아신구", 
        "rn": 892, 
        "typef": "apt"
    }, 
    {
        "lat": 37.4858284, 
        "lng": 126.953064, 
        "name": " 서울특별시 관악구 봉천동 41 258 카후나빌", 
        "rn": 3232, 
        "typef": "apt"
    }, 
    {
        "lat": 37.5080948, 
        "lng": 126.926254, 
        "name": " 서울특별시 동작구 대방동 515 0 아데나339", 
        "rn": 6209, 
        "typef": "apt"
    }, 
    {
        "lat": 37.6530266, 
        "lng": 127.043793, 
        "name": " 서울특별시 도봉구 창동 300 0 상아2차아파트", 
        "rn": 1851, 
        "typef": "apt"
    }, 
    {
        "lat": 37.6162338, 
        "lng": 127.078712, 
        "name": " 서울특별시 중랑구 묵동 162 17 헤르만스테이트", 
        "rn": 5451, 
        "typef": "apt"
    }, 
    {
        "lat": 37.5099487, 
        "lng": 127.123894, 
        "name": " 서울특별시 송파구 방이동 208 19 현대빌라(208-19)", 
        "rn": 3707, 
        "typef": "apt"
    }, 
    {
        "lat": 37.5771484, 
        "lng": 127.029457, 
        "name": " 서울특별시 동대문구 용두동 236 1 신설동역대우아이빌1", 
        "rn": 3555, 
        "typef": "apt"
    }, 
    {
        "lat": 37.6253166, 
        "lng": 127.07888, 
        "name": " 서울특별시 노원구 공릉동 408 23 한진아파트", 
        "rn": 206, 
        "typef": "apt"
    }, 
    {
        "lat": 37.6082191, 
        "lng": 126.912071, 
        "name": " 서울특별시 은평구 구산동 24 77 그린", 
        "rn": 1692, 
        "typef": "apt"
    }, 
    {
        "lat": 37.5200157, 
        "lng": 127.054298, 
        "name": " 서울특별시 강남구 청담동 65 0 진흥", 
        "rn": 6201, 
        "typef": "apt"
    }, 
    {
        "lat": 37.673439, 
        "lng": 127.051132, 
        "name": " 서울특별시 노원구 상계동 1087 4 수락파크", 
        "rn": 605, 
        "typef": "apt"
    }, 
    {
        "lat": 37.473835, 
        "lng": 127.044258, 
        "name": " 서울특별시 서초구 양재동 306 11 양재동현대", 
        "rn": 5044, 
        "typef": "apt"
    }, 
    {
        "lat": 37.5996933, 
        "lng": 127.102966, 
        "name": " 서울특별시 중랑구 망우동 202 16 성도아트빌", 
        "rn": 861, 
        "typef": "apt"
    }, 
    {
        "lat": 37.5868378, 
        "lng": 126.948204, 
        "name": " 서울특별시 서대문구 홍제동 131 9 그레이스(B동)", 
        "rn": 1471, 
        "typef": "apt"
    }, 
    {
        "lat": 37.5116005, 
        "lng": 127.108154, 
        "name": " 서울특별시 송파구 송파동 58 1 대우레이크월드", 
        "rn": 4400, 
        "typef": "apt"
    }, 
    {
        "lat": 37.4999046, 
        "lng": 127.0653, 
        "name": " 서울특별시 강남구 대치동 992 0 현대1", 
        "rn": 5966, 
        "typef": "apt"
    }, 
    {
        "lat": 37.5305405, 
        "lng": 126.908005, 
        "name": " 서울특별시 영등포구 당산동 376 0 강변래미안", 
        "rn": 5068, 
        "typef": "apt"
    }, 
    {
        "lat": 37.5112929, 
        "lng": 126.8467256, 
        "name": " 서울특별시 양천구 신정동 1291 0 학마을3", 
        "rn": 2852, 
        "typef": "apt"
    }, 
    {
        "lat": 37.525021, 
        "lng": 126.8386291, 
        "name": " 서울특별시 양천구 신월동 1027 0 벽산블루밍2단지", 
        "rn": 2824, 
        "typef": "apt"
    }, 
    {
        "lat": 37.4888229, 
        "lng": 127.038048, 
        "name": " 서울특별시 강남구 도곡동 970 0 도곡3차아이파크", 
        "rn": 5874, 
        "typef": "apt"
    }, 
    {
        "lat": 37.5356342, 
        "lng": 126.8686918, 
        "name": " 서울특별시 양천구 목동 945 0 목동노블레스", 
        "rn": 3809, 
        "typef": "apt"
    }, 
    {
        "lat": 37.5824203, 
        "lng": 126.90345, 
        "name": " 서울특별시 은평구 증산동 244 0 우방", 
        "rn": 3032, 
        "typef": "apt"
    }, 
    {
        "lat": 37.5478706, 
        "lng": 126.93325, 
        "name": " 서울특별시 마포구 신수동 453 0 대원칸타빌", 
        "rn": 4600, 
        "typef": "apt"
    }, 
    {
        "lat": 37.4698792, 
        "lng": 126.964531, 
        "name": " 서울특별시 관악구 봉천동 1707 1 은천", 
        "rn": 4577, 
        "typef": "apt"
    }, 
    {
        "lat": 37.5422897, 
        "lng": 127.139923, 
        "name": " 서울특별시 강동구 천호동 52 6 천호2차이룸", 
        "rn": 2381, 
        "typef": "apt"
    }, 
    {
        "lat": 37.5956688, 
        "lng": 126.913483, 
        "name": " 서울특별시 은평구 신사동 361 0 삼부", 
        "rn": 1491, 
        "typef": "apt"
    }, 
    {
        "lat": 37.5024605, 
        "lng": 127.04937, 
        "name": " 서울특별시 강남구 역삼동 716 0 동부센트레빌", 
        "rn": 6272, 
        "typef": "apt"
    }, 
    {
        "lat": 37.4920158, 
        "lng": 127.022133, 
        "name": " 서울특별시 서초구 서초동 1549 3 월드메르디앙", 
        "rn": 4635, 
        "typef": "apt"
    }, 
    {
        "lat": 37.477356, 
        "lng": 126.973465, 
        "name": " 서울특별시 동작구 사당동 1048 8 오림센트빌", 
        "rn": 2292, 
        "typef": "apt"
    }, 
    {
        "lat": 37.5524445, 
        "lng": 126.874069, 
        "name": " 서울특별시 강서구 염창동 304 0 이너스5차동진", 
        "rn": 2701, 
        "typef": "apt"
    }, 
    {
        "lat": 37.6663857, 
        "lng": 127.045586, 
        "name": " 서울특별시 도봉구 방학동 716 5 이에스에이아파트", 
        "rn": 3128, 
        "typef": "apt"
    }, 
    {
        "lat": 37.5025139, 
        "lng": 126.89196, 
        "name": " 서울특별시 구로구 구로동 43 4 다솜금호", 
        "rn": 2188, 
        "typef": "apt"
    }, 
    {
        "lat": 37.5454865, 
        "lng": 126.846275, 
        "name": " 서울특별시 강서구 화곡동 24 138 토석아네스아파트", 
        "rn": 3577, 
        "typef": "apt"
    }, 
    {
        "lat": 37.6768074, 
        "lng": 127.058014, 
        "name": " 서울특별시 노원구 상계동 1308 0 늘푸른비콘", 
        "rn": 2971, 
        "typef": "apt"
    }, 
    {
        "lat": 37.4874496, 
        "lng": 127.039268, 
        "name": " 서울특별시 강남구 도곡동 893 2 동신(바동)", 
        "rn": 6104, 
        "typef": "apt"
    }, 
    {
        "lat": 37.4684639, 
        "lng": 127.044548, 
        "name": " 서울특별시 서초구 양재동 359 0 새티스", 
        "rn": 3573, 
        "typef": "apt"
    }, 
    {
        "lat": 37.4921989, 
        "lng": 126.989449, 
        "name": " 서울특별시 서초구 방배동 814 31 이연아마빌레", 
        "rn": 5564, 
        "typef": "apt"
    }, 
    {
        "lat": 37.5138168, 
        "lng": 126.906425, 
        "name": " 서울특별시 영등포구 영등포동 618 83 영일", 
        "rn": 768, 
        "typef": "apt"
    }, 
    {
        "lat": 37.523983, 
        "lng": 126.894867, 
        "name": " 서울특별시 영등포구 당산동2가 164 0 현대", 
        "rn": 4330, 
        "typef": "apt"
    }, 
    {
        "lat": 37.4983215, 
        "lng": 126.944145, 
        "name": " 서울특별시 동작구 상도동 211 1 약수맨션", 
        "rn": 1250, 
        "typef": "apt"
    }, 
    {
        "lat": 37.492733, 
        "lng": 127.128075, 
        "name": " 서울특별시 송파구 가락동 137 3 청공빌딩주상복합-현대빌리지", 
        "rn": 41, 
        "typef": "apt"
    }, 
    {
        "lat": 37.5479164, 
        "lng": 127.0495, 
        "name": " 서울특별시 성동구 성수동1가 717 0 태천해오름", 
        "rn": 2967, 
        "typef": "apt"
    }, 
    {
        "lat": 37.5029403, 
        "lng": 126.8422137, 
        "name": "개봉중학교", 
        "rn": 289, 
        "typef": "sch"
    }, 
    {
        "lat": 37.6055031, 
        "lng": 127.023323, 
        "name": " 서울특별시 성북구 길음동 1283 0 래미안길음3차", 
        "rn": 5131, 
        "typef": "apt"
    }, 
    {
        "lat": 37.5325356, 
        "lng": 126.903397, 
        "name": " 서울특별시 영등포구 당산동5가 42 0 삼성래미안", 
        "rn": 5463, 
        "typef": "apt"
    }, 
    {
        "lat": 37.526577, 
        "lng": 127.123215, 
        "name": " 서울특별시 강동구 성내동 459 9 삼성파크타워", 
        "rn": 1736, 
        "typef": "apt"
    }, 
    {
        "lat": 37.48423, 
        "lng": 126.907509, 
        "name": " 서울특별시 관악구 신림동 1719 0 우민조원", 
        "rn": 2644, 
        "typef": "apt"
    }, 
    {
        "lat": 37.4885178, 
        "lng": 126.96756, 
        "name": " 서울특별시 동작구 사당동 1136 0 경남아너스빌(대아3)", 
        "rn": 4668, 
        "typef": "apt"
    }, 
    {
        "lat": 37.519981, 
        "lng": 126.8365553, 
        "name": " 서울특별시 양천구 신월동 488 3 남영시티빌", 
        "rn": 274, 
        "typef": "apt"
    }, 
    {
        "lat": 37.618, 
        "lng": 127.062401, 
        "name": " 서울특별시 노원구 월계동 929 0 현대", 
        "rn": 2814, 
        "typef": "apt"
    }, 
    {
        "lat": 37.5260696, 
        "lng": 127.05249, 
        "name": " 서울특별시 강남구 청담동 127 37 상지리츠빌5B", 
        "rn": 5793, 
        "typef": "apt"
    }, 
    {
        "lat": 37.597168, 
        "lng": 127.102585, 
        "name": " 서울특별시 중랑구 망우동 401 21 예성그린캐슬2차", 
        "rn": 952, 
        "typef": "apt"
    }, 
    {
        "lat": 37.5019035, 
        "lng": 127.044357, 
        "name": " 서울특별시 강남구 역삼동 706 20 한화진넥스빌", 
        "rn": 4800, 
        "typef": "apt"
    }, 
    {
        "lat": 37.6262245, 
        "lng": 127.037682, 
        "name": " 서울특별시 강북구 번동 139 0 해모로아파트", 
        "rn": 2989, 
        "typef": "apt"
    }, 
    {
        "lat": 37.5850372, 
        "lng": 126.947449, 
        "name": " 서울특별시 서대문구 홍제동 469 0 인왕산 한신휴플러스", 
        "rn": 4385, 
        "typef": "apt"
    }, 
    {
        "lat": 37.499958, 
        "lng": 126.84343, 
        "name": " 서울특별시 구로구 개봉동 60 82 거성푸르뫼2", 
        "rn": 469, 
        "typef": "apt"
    }, 
    {
        "lat": 37.6274719, 
        "lng": 127.043739, 
        "name": " 서울특별시 강북구 번동 191 0 기산그린아파트", 
        "rn": 1837, 
        "typef": "apt"
    }, 
    {
        "lat": 37.534565, 
        "lng": 126.858208, 
        "name": " 서울특별시 강서구 화곡동 824 13 진흥", 
        "rn": 594, 
        "typef": "apt"
    }, 
    {
        "lat": 37.4881363, 
        "lng": 126.922859, 
        "name": " 서울특별시 관악구 신림동 1711 1 보라매119동", 
        "rn": 2237, 
        "typef": "apt"
    }, 
    {
        "lat": 37.4954338, 
        "lng": 127.046936, 
        "name": " 서울특별시 강남구 역삼동 763 16 래미안그레이튼", 
        "rn": 6458, 
        "typef": "apt"
    }, 
    {
        "lat": 37.5889778, 
        "lng": 127.072685, 
        "name": " 서울특별시 중랑구 면목동 1519 0 신성", 
        "rn": 2357, 
        "typef": "apt"
    }, 
    {
        "lat": 37.5224304, 
        "lng": 127.049629, 
        "name": " 서울특별시 강남구 청담동 60 0 삼성청담공원", 
        "rn": 6176, 
        "typef": "apt"
    }, 
    {
        "lat": 37.6523857, 
        "lng": 127.041687, 
        "name": " 서울특별시 도봉구 창동 316 0 주공2", 
        "rn": 2589, 
        "typef": "apt"
    }, 
    {
        "lat": 37.4828758, 
        "lng": 126.909424, 
        "name": " 서울특별시 관악구 신림동 546 7 윤정", 
        "rn": 107, 
        "typef": "apt"
    }, 
    {
        "lat": 37.678215, 
        "lng": 127.051964, 
        "name": " 서울특별시 노원구 상계동 1297 0 상록수2단지", 
        "rn": 2100, 
        "typef": "apt"
    }, 
    {
        "lat": 37.5369186, 
        "lng": 126.898132, 
        "name": " 서울특별시 영등포구 양평동4가 324 0 에이스리버티움", 
        "rn": 3385, 
        "typef": "apt"
    }, 
    {
        "lat": 37.534317, 
        "lng": 127.132347, 
        "name": " 서울특별시 강동구 성내동 196 8 코오롱(1차)", 
        "rn": 4557, 
        "typef": "apt"
    }, 
    {
        "lat": 37.54562, 
        "lng": 126.956749, 
        "name": " 서울특별시 마포구 신공덕동 161 0 신공덕래미안3차", 
        "rn": 5259, 
        "typef": "apt"
    }, 
    {
        "lat": 37.4730034, 
        "lng": 126.890869, 
        "name": " 서울특별시 금천구 가산동 235 57 드림캐슬", 
        "rn": 694, 
        "typef": "apt"
    }, 
    {
        "lat": 37.542614, 
        "lng": 127.140808, 
        "name": " 서울특별시 강동구 천호동 50 32 광남벨라스643VA", 
        "rn": 2242, 
        "typef": "apt"
    }, 
    {
        "lat": 37.5656815, 
        "lng": 126.920273, 
        "name": " 서울특별시 마포구 연남동 244 15 새마을", 
        "rn": 2497, 
        "typef": "apt"
    }, 
    {
        "lat": 37.4878197, 
        "lng": 126.830002, 
        "name": " 서울특별시 구로구 오류동 350 0 더메디치", 
        "rn": 2637, 
        "typef": "apt"
    }, 
    {
        "lat": 37.5472488, 
        "lng": 126.834312, 
        "name": " 서울특별시 강서구 화곡동 1009 6 신세계2", 
        "rn": 1340, 
        "typef": "apt"
    }, 
    {
        "lat": 37.494381, 
        "lng": 127.043442, 
        "name": " 서울특별시 강남구 역삼동 783 3 갤러리하우스", 
        "rn": 4701, 
        "typef": "apt"
    }, 
    {
        "lat": 37.5373802, 
        "lng": 127.083038, 
        "name": " 서울특별시 광진구 자양동 779 8 (779-8)", 
        "rn": 4837, 
        "typef": "apt"
    }, 
    {
        "lat": 37.5252609, 
        "lng": 127.050842, 
        "name": " 서울특별시 강남구 청담동 125 0 범신칼릭스빌", 
        "rn": 5735, 
        "typef": "apt"
    }, 
    {
        "lat": 37.5419273, 
        "lng": 126.889671, 
        "name": " 서울특별시 영등포구 양평동6가 100 0 동양", 
        "rn": 2963, 
        "typef": "apt"
    }, 
    {
        "lat": 37.5086403, 
        "lng": 127.05439, 
        "name": " 서울특별시 강남구 삼성동 129 5 삼성팰리스", 
        "rn": 4742, 
        "typef": "apt"
    }, 
    {
        "lat": 37.519981, 
        "lng": 126.8365553, 
        "name": " 서울특별시 양천구 신월동 519 12 삼종레이빌101동", 
        "rn": 619, 
        "typef": "apt"
    }, 
    {
        "lat": 37.584897, 
        "lng": 126.9870352, 
        "name": "중앙중학교", 
        "rn": 163, 
        "typef": "sch"
    }, 
    {
        "lat": 37.5280952, 
        "lng": 126.895119, 
        "name": " 서울특별시 영등포구 당산동3가 394 0 삼익", 
        "rn": 4078, 
        "typef": "apt"
    }, 
    {
        "lat": 37.5878065, 
        "lng": 127.0511245, 
        "name": "청량중학교", 
        "rn": 229, 
        "typef": "sch"
    }, 
    {
        "lat": 37.5475082, 
        "lng": 126.875038, 
        "name": " 서울특별시 강서구 염창동 282 0 삼정그린코아", 
        "rn": 4220, 
        "typef": "apt"
    }, 
    {
        "lat": 37.5922546, 
        "lng": 127.065514, 
        "name": " 서울특별시 동대문구 휘경동 78 0 롯데", 
        "rn": 3264, 
        "typef": "apt"
    }, 
    {
        "lat": 37.4834709, 
        "lng": 127.125244, 
        "name": " 서울특별시 송파구 문정동 68 5 자이파인빌(102동)", 
        "rn": 3652, 
        "typef": "apt"
    }, 
    {
        "lat": 37.519981, 
        "lng": 126.8365553, 
        "name": " 서울특별시 양천구 신월동 433 1 타워빌", 
        "rn": 463, 
        "typef": "apt"
    }, 
    {
        "lat": 37.5363159, 
        "lng": 127.089546, 
        "name": " 서울특별시 광진구 구의동 590 0 신원빌라트", 
        "rn": 571, 
        "typef": "apt"
    }, 
    {
        "lat": 37.528038, 
        "lng": 127.050247, 
        "name": " 서울특별시 강남구 청담동 106 0 현대한강", 
        "rn": 5698, 
        "typef": "apt"
    }, 
    {
        "lat": 37.5791168, 
        "lng": 127.035545, 
        "name": " 서울특별시 동대문구 제기동 892 68 경동미주", 
        "rn": 3136, 
        "typef": "apt"
    }, 
    {
        "lat": 37.6362076, 
        "lng": 126.933281, 
        "name": " 서울특별시 은평구 진관동 92 0 제각말(푸르지오2-9단지)", 
        "rn": 4402, 
        "typef": "apt"
    }, 
    {
        "lat": 37.5115089, 
        "lng": 126.960487, 
        "name": " 서울특별시 동작구 흑석동 172 8 MARKHILLS", 
        "rn": 5978, 
        "typef": "apt"
    }, 
    {
        "lat": 37.6084747, 
        "lng": 126.915283, 
        "name": " 서울특별시 은평구 구산동 223 0 세화샤이닝2", 
        "rn": 1074, 
        "typef": "apt"
    }, 
    {
        "lat": 37.5386772, 
        "lng": 127.138588, 
        "name": " 서울특별시 강동구 길동 380 6 광남(380-6)", 
        "rn": 1907, 
        "typef": "apt"
    }, 
    {
        "lat": 37.5565605, 
        "lng": 126.84304, 
        "name": " 서울특별시 강서구 내발산동 659 1 월드메르디앙", 
        "rn": 4342, 
        "typef": "apt"
    }, 
    {
        "lat": 37.5359268, 
        "lng": 127.010216, 
        "name": " 서울특별시 용산구 한남동 810 0 한남더힐", 
        "rn": 6519, 
        "typef": "apt"
    }, 
    {
        "lat": 37.6015625, 
        "lng": 127.10923, 
        "name": " 서울특별시 중랑구 망우동 580 1 금호어울림(580-1)", 
        "rn": 2387, 
        "typef": "apt"
    }, 
    {
        "lat": 37.5555115, 
        "lng": 127.033005, 
        "name": " 서울특별시 성동구 행당동 376 0 서울숲행당푸르지오", 
        "rn": 5807, 
        "typef": "apt"
    }, 
    {
        "lat": 37.5103188, 
        "lng": 127.005028, 
        "name": " 서울특별시 서초구 잠원동 71 17 중앙하이츠", 
        "rn": 6294, 
        "typef": "apt"
    }, 
    {
        "lat": 37.6056023, 
        "lng": 126.960266, 
        "name": " 서울특별시 종로구 신영동 254 0 대아파크빌", 
        "rn": 2799, 
        "typef": "apt"
    }, 
    {
        "lat": 37.5370192, 
        "lng": 126.8735297, 
        "name": " 서울특별시 양천구 목동 773 3 목동글로리파크", 
        "rn": 1790, 
        "typef": "apt"
    }, 
    {
        "lat": 37.5629272, 
        "lng": 127.068962, 
        "name": " 서울특별시 동대문구 장안동 579 0 은하수드림빌", 
        "rn": 1467, 
        "typef": "apt"
    }, 
    {
        "lat": 37.5484276, 
        "lng": 127.069824, 
        "name": " 서울특별시 광진구 군자동 360 20 동양파라곤", 
        "rn": 3730, 
        "typef": "apt"
    }, 
    {
        "lat": 37.4738503, 
        "lng": 126.977501, 
        "name": " 서울특별시 관악구 남현동 1085 17 솔본", 
        "rn": 3511, 
        "typef": "apt"
    }, 
    {
        "lat": 37.522479, 
        "lng": 126.8713204, 
        "name": " 서울특별시 양천구 신정동 1297 0 길훈로즈빌", 
        "rn": 5388, 
        "typef": "apt"
    }, 
    {
        "lat": 37.5150593, 
        "lng": 126.913731, 
        "name": "영원중학교", 
        "rn": 283, 
        "typef": "sch"
    }, 
    {
        "lat": 37.4852638, 
        "lng": 127.0308, 
        "name": " 서울특별시 서초구 서초동 1364 37 서초에버빌", 
        "rn": 3777, 
        "typef": "apt"
    }, 
    {
        "lat": 37.4908676, 
        "lng": 126.994591, 
        "name": " 서울특별시 서초구 방배동 849 2 방배비젼21빌라트", 
        "rn": 3197, 
        "typef": "apt"
    }, 
    {
        "lat": 37.4727173, 
        "lng": 126.962341, 
        "name": " 서울특별시 관악구 봉천동 196 178 목화빌리지B", 
        "rn": 889, 
        "typef": "apt"
    }, 
    {
        "lat": 37.5560112, 
        "lng": 126.858238, 
        "name": " 서울특별시 강서구 등촌동 642 0 제일(코오롱)", 
        "rn": 2537, 
        "typef": "apt"
    }, 
    {
        "lat": 37.5321007, 
        "lng": 127.1147, 
        "name": " 서울특별시 송파구 풍납동 254 2 송파N-suite", 
        "rn": 3463, 
        "typef": "apt"
    }, 
    {
        "lat": 37.502491, 
        "lng": 127.031158, 
        "name": " 서울특별시 강남구 역삼동 633 22 (633-22)로얄팰리스", 
        "rn": 3771, 
        "typef": "apt"
    }, 
    {
        "lat": 37.5610619, 
        "lng": 126.900146, 
        "name": " 서울특별시 마포구 망원동 465 3 광남캐스빌B", 
        "rn": 3237, 
        "typef": "apt"
    }, 
    {
        "lat": 37.5166014, 
        "lng": 126.8638714, 
        "name": " 서울특별시 양천구 신정동 1013 14 서일해오름102", 
        "rn": 2172, 
        "typef": "apt"
    }, 
    {
        "lat": 37.4843788, 
        "lng": 127.003525, 
        "name": " 서울특별시 서초구 서초동 1492 5 서초트레져", 
        "rn": 5290, 
        "typef": "apt"
    }, 
    {
        "lat": 37.4955101, 
        "lng": 126.899437, 
        "name": " 서울특별시 영등포구 대림동 1124 0 신대림 신동아파밀리에", 
        "rn": 4670, 
        "typef": "apt"
    }, 
    {
        "lat": 37.5773392, 
        "lng": 126.931305, 
        "name": " 서울특별시 서대문구 연희동 746 0 연희웨스트팰리스", 
        "rn": 6256, 
        "typef": "apt"
    }, 
    {
        "lat": 37.5645714, 
        "lng": 127.071892, 
        "name": " 서울특별시 동대문구 장안동 358 18 SM이로빌3차(358-18)", 
        "rn": 1071, 
        "typef": "apt"
    }, 
    {
        "lat": 37.5522842, 
        "lng": 126.844955, 
        "name": " 서울특별시 강서구 화곡동 992 11 우장산청솔(992-11)", 
        "rn": 2050, 
        "typef": "apt"
    }, 
    {
        "lat": 37.487709, 
        "lng": 126.957275, 
        "name": " 서울특별시 관악구 봉천동 1721 0 브라운스톤관악", 
        "rn": 4153, 
        "typef": "apt"
    }, 
    {
        "lat": 37.4765434, 
        "lng": 126.915222, 
        "name": " 서울특별시 관악구 신림동 763 0 한라타운아파트", 
        "rn": 1783, 
        "typef": "apt"
    }, 
    {
        "lat": 37.534565, 
        "lng": 126.858208, 
        "name": " 서울특별시 강서구 화곡동 1141 0 화곡삼익", 
        "rn": 1296, 
        "typef": "apt"
    }, 
    {
        "lat": 37.5290718, 
        "lng": 126.843536, 
        "name": " 서울특별시 강서구 화곡동 915 21 우진", 
        "rn": 214, 
        "typef": "apt"
    }, 
    {
        "lat": 37.5372162, 
        "lng": 127.136391, 
        "name": " 서울특별시 강동구 길동 415 11 한솔브리즈", 
        "rn": 1810, 
        "typef": "apt"
    }, 
    {
        "lat": 37.5595093, 
        "lng": 127.080185, 
        "name": " 서울특별시 광진구 중곡동 647 1 삼보글로벌101동", 
        "rn": 4128, 
        "typef": "apt"
    }, 
    {
        "lat": 37.5063705, 
        "lng": 126.916542, 
        "name": " 서울특별시 영등포구 신길동 4938 0 신길동자이", 
        "rn": 4575, 
        "typef": "apt"
    }, 
    {
        "lat": 37.6123886, 
        "lng": 127.025688, 
        "name": " 서울특별시 강북구 미아동 461 0 송천센트레빌", 
        "rn": 5099, 
        "typef": "apt"
    }, 
    {
        "lat": 37.5467606, 
        "lng": 126.924088, 
        "name": " 서울특별시 마포구 상수동 396 0 두산위브", 
        "rn": 5189, 
        "typef": "apt"
    }, 
    {
        "lat": 37.5540314, 
        "lng": 126.871796, 
        "name": " 서울특별시 강서구 염창동 307 0 이너스내안에", 
        "rn": 3021, 
        "typef": "apt"
    }, 
    {
        "lat": 37.4804611, 
        "lng": 126.915283, 
        "name": " 서울특별시 관악구 신림동 1568 21 고흥", 
        "rn": 2248, 
        "typef": "apt"
    }, 
    {
        "lat": 37.5511169, 
        "lng": 126.93071, 
        "name": " 서울특별시 마포구 창전동 437 0 창전래미안", 
        "rn": 4553, 
        "typef": "apt"
    }, 
    {
        "lat": 37.503437, 
        "lng": 127.126663, 
        "name": " 서울특별시 송파구 오금동 45 0 르네상스빌", 
        "rn": 3733, 
        "typef": "apt"
    }, 
    {
        "lat": 37.54459, 
        "lng": 126.955704, 
        "name": " 서울특별시 마포구 신공덕동 174 0 신공덕아이파크", 
        "rn": 5911, 
        "typef": "apt"
    }, 
    {
        "lat": 37.5534744, 
        "lng": 126.944908, 
        "name": " 서울특별시 마포구 대흥동 18 55 성신", 
        "rn": 4060, 
        "typef": "apt"
    }, 
    {
        "lat": 37.5156441, 
        "lng": 127.116486, 
        "name": " 서울특별시 송파구 방이동 180 8 해태그린피아빌라트", 
        "rn": 4292, 
        "typef": "apt"
    }, 
    {
        "lat": 37.5112114, 
        "lng": 127.124229, 
        "name": " 서울특별시 송파구 방이동 191 6 실버빌타운", 
        "rn": 2113, 
        "typef": "apt"
    }, 
    {
        "lat": 37.4979858, 
        "lng": 126.891678, 
        "name": " 서울특별시 구로구 구로동 106 10 순영웰라이빌1", 
        "rn": 3209, 
        "typef": "apt"
    }, 
    {
        "lat": 37.4920425, 
        "lng": 126.923424, 
        "name": " 서울특별시 동작구 신대방동 395 65 보라매현대", 
        "rn": 2712, 
        "typef": "apt"
    }, 
    {
        "lat": 37.4971733, 
        "lng": 127.033585, 
        "name": " 서울특별시 강남구 역삼동 828 28 EGSoulLeader", 
        "rn": 6503, 
        "typef": "apt"
    }, 
    {
        "lat": 37.5015182, 
        "lng": 127.140953, 
        "name": " 서울특별시 송파구 오금동 133 16 영풍", 
        "rn": 2933, 
        "typef": "apt"
    }, 
    {
        "lat": 37.5935783, 
        "lng": 126.91394, 
        "name": " 서울특별시 은평구 신사동 362 0 (362-0)1", 
        "rn": 724, 
        "typef": "apt"
    }, 
    {
        "lat": 37.4745827, 
        "lng": 127.055191, 
        "name": " 서울특별시 강남구 개포동 1164 28 포이벨리", 
        "rn": 4073, 
        "typef": "apt"
    }, 
    {
        "lat": 37.4875069, 
        "lng": 126.889076, 
        "name": " 서울특별시 구로구 구로동 779 13 (779-13)", 
        "rn": 1397, 
        "typef": "apt"
    }, 
    {
        "lat": 37.5307884, 
        "lng": 126.901253, 
        "name": " 서울특별시 영등포구 당산동5가 12 0 효성1", 
        "rn": 5087, 
        "typef": "apt"
    }, 
    {
        "lat": 37.5909042, 
        "lng": 127.072311, 
        "name": " 서울특별시 중랑구 면목동 1514 0 풍림", 
        "rn": 2076, 
        "typef": "apt"
    }, 
    {
        "lat": 37.5432053, 
        "lng": 126.956139, 
        "name": " 서울특별시 마포구 신공덕동 155 0 신공덕1차삼성래미안1아파트", 
        "rn": 5420, 
        "typef": "apt"
    }, 
    {
        "lat": 37.6599693, 
        "lng": 127.035713, 
        "name": " 서울특별시 도봉구 쌍문동 13 2 대웅", 
        "rn": 319, 
        "typef": "apt"
    }, 
    {
        "lat": 37.5469398, 
        "lng": 126.858406, 
        "name": " 서울특별시 강서구 등촌동 515 41 신세계", 
        "rn": 954, 
        "typef": "apt"
    }, 
    {
        "lat": 37.5124016, 
        "lng": 126.891838, 
        "name": " 서울특별시 영등포구 문래동2가 35 0 남성", 
        "rn": 3657, 
        "typef": "apt"
    }, 
    {
        "lat": 37.5653267, 
        "lng": 126.9972964, 
        "name": "덕수중학교", 
        "rn": 275, 
        "typef": "sch"
    }, 
    {
        "lat": 37.4913712, 
        "lng": 126.969574, 
        "name": " 서울특별시 동작구 사당동 180 26 삼성그린", 
        "rn": 2030, 
        "typef": "apt"
    }, 
    {
        "lat": 37.4677696, 
        "lng": 126.939507, 
        "name": " 서울특별시 관악구 신림동 244 0 관악", 
        "rn": 2289, 
        "typef": "apt"
    }, 
    {
        "lat": 37.6283073, 
        "lng": 127.066902, 
        "name": " 서울특별시 노원구 공릉동 725 0 풍림아파트A", 
        "rn": 3500, 
        "typef": "apt"
    }, 
    {
        "lat": 37.5370192, 
        "lng": 126.8735297, 
        "name": " 서울특별시 양천구 목동 751 4 목동성원초원", 
        "rn": 4166, 
        "typef": "apt"
    }, 
    {
        "lat": 37.5327148, 
        "lng": 127.139328, 
        "name": " 서울특별시 강동구 둔촌동 435 2 상상프리", 
        "rn": 4715, 
        "typef": "apt"
    }, 
    {
        "lat": 37.5397644, 
        "lng": 126.98793, 
        "name": " 서울특별시 용산구 이태원동 669 0 용산", 
        "rn": 4884, 
        "typef": "apt"
    }, 
    {
        "lat": 37.5936546, 
        "lng": 126.912262, 
        "name": " 서울특별시 은평구 신사동 39 21 모델리안1", 
        "rn": 1369, 
        "typef": "apt"
    }, 
    {
        "lat": 37.4823723, 
        "lng": 127.128082, 
        "name": " 서울특별시 송파구 문정동 81 1 아름빌", 
        "rn": 3212, 
        "typef": "apt"
    }, 
    {
        "lat": 37.6564217, 
        "lng": 127.066299, 
        "name": " 서울특별시 노원구 상계동 330 29 소담빌", 
        "rn": 6145, 
        "typef": "apt"
    }, 
    {
        "lat": 37.4639091, 
        "lng": 126.937172, 
        "name": " 서울특별시 관악구 신림동 255 189 현대", 
        "rn": 1014, 
        "typef": "apt"
    }, 
    {
        "lat": 37.5422134, 
        "lng": 127.092232, 
        "name": " 서울특별시 광진구 구의동 208 1 욱현(208-1)", 
        "rn": 2025, 
        "typef": "apt"
    }, 
    {
        "lat": 37.6021729, 
        "lng": 127.069321, 
        "name": " 서울특별시 동대문구 이문동 427 0 이문2차푸르지오", 
        "rn": 3311, 
        "typef": "apt"
    }, 
    {
        "lat": 37.5580635, 
        "lng": 127.01844, 
        "name": " 서울특별시 중구 신당동 843 0 삼성", 
        "rn": 4663, 
        "typef": "apt"
    }, 
    {
        "lat": 37.5248146, 
        "lng": 127.04274, 
        "name": " 서울특별시 강남구 청담동 90 17 아노스카운트빌라트", 
        "rn": 5580, 
        "typef": "apt"
    }, 
    {
        "lat": 37.496376, 
        "lng": 126.910088, 
        "name": " 서울특별시 영등포구 신길동 4656 0 우성3", 
        "rn": 3403, 
        "typef": "apt"
    }, 
    {
        "lat": 37.5132256, 
        "lng": 127.022888, 
        "name": " 서울특별시 강남구 논현동 46 2 힐스빌7", 
        "rn": 4296, 
        "typef": "apt"
    }, 
    {
        "lat": 37.4481316, 
        "lng": 126.918976, 
        "name": " 서울특별시 금천구 시흥동 1010 0 벽산", 
        "rn": 687, 
        "typef": "apt"
    }, 
    {
        "lat": 37.5404701, 
        "lng": 127.013748, 
        "name": " 서울특별시 성동구 옥수동 557 0 극동옥정", 
        "rn": 3900, 
        "typef": "apt"
    }, 
    {
        "lat": 37.5166014, 
        "lng": 126.8638714, 
        "name": " 서울특별시 양천구 신정동 872 6 팰리스필", 
        "rn": 1886, 
        "typef": "apt"
    }, 
    {
        "lat": 37.6381264, 
        "lng": 127.036072, 
        "name": " 서울특별시 도봉구 창동 553 50 세명", 
        "rn": 247, 
        "typef": "apt"
    }, 
    {
        "lat": 37.4889069, 
        "lng": 127.02858, 
        "name": " 서울특별시 서초구 서초동 1336 0 우성1", 
        "rn": 5997, 
        "typef": "apt"
    }, 
    {
        "lat": 37.5026627, 
        "lng": 127.030533, 
        "name": " 서울특별시 강남구 역삼동 633 0 베스젠빌", 
        "rn": 3257, 
        "typef": "apt"
    }, 
    {
        "lat": 37.5103455, 
        "lng": 127.106514, 
        "name": " 서울특별시 송파구 송파동 31 0 여흥레이크빌", 
        "rn": 4980, 
        "typef": "apt"
    }, 
    {
        "lat": 37.4789886, 
        "lng": 127.001526, 
        "name": " 서울특별시 서초구 방배동 1018 1 삼익", 
        "rn": 5502, 
        "typef": "apt"
    }, 
    {
        "lat": 37.6583023, 
        "lng": 127.062935, 
        "name": " 서울특별시 노원구 상계동 359 0 노원현대", 
        "rn": 3164, 
        "typef": "apt"
    }, 
    {
        "lat": 37.6076393, 
        "lng": 126.910248, 
        "name": " 서울특별시 은평구 구산동 26 41 엔에스", 
        "rn": 421, 
        "typef": "apt"
    }, 
    {
        "lat": 37.6396675, 
        "lng": 127.075317, 
        "name": " 서울특별시 노원구 하계동 284 0 한신1", 
        "rn": 3946, 
        "typef": "apt"
    }, 
    {
        "lat": 37.5490417, 
        "lng": 127.145676, 
        "name": " 서울특별시 강동구 명일동 332 0 명일엘지", 
        "rn": 4186, 
        "typef": "apt"
    }, 
    {
        "lat": 37.6178627, 
        "lng": 127.059601, 
        "name": " 서울특별시 노원구 월계동 448 3 삼창", 
        "rn": 1163, 
        "typef": "apt"
    }, 
    {
        "lat": 37.6111298, 
        "lng": 126.927895, 
        "name": " 서울특별시 은평구 대조동 6 18 나이스홈", 
        "rn": 4850, 
        "typef": "apt"
    }, 
    {
        "lat": 37.5893364, 
        "lng": 126.99501, 
        "name": " 서울특별시 종로구 명륜3가 1 30 한빛", 
        "rn": 2307, 
        "typef": "apt"
    }, 
    {
        "lat": 37.4965439, 
        "lng": 127.134003, 
        "name": " 서울특별시 송파구 가락동 173 4 금홍해오름", 
        "rn": 4313, 
        "typef": "apt"
    }, 
    {
        "lat": 37.5858498, 
        "lng": 126.914459, 
        "name": " 서울특별시 서대문구 북가좌동 336 4 명진", 
        "rn": 409, 
        "typef": "apt"
    }, 
    {
        "lat": 37.5394516, 
        "lng": 126.836052, 
        "name": " 서울특별시 강서구 화곡동 1072 22 천우중앙", 
        "rn": 776, 
        "typef": "apt"
    }, 
    {
        "lat": 37.5679741, 
        "lng": 127.085182, 
        "name": " 서울특별시 광진구 중곡동 168 1 에이탑", 
        "rn": 1952, 
        "typef": "apt"
    }, 
    {
        "lat": 37.5166014, 
        "lng": 126.8638714, 
        "name": " 서울특별시 양천구 신정동 995 3 휘버스", 
        "rn": 3376, 
        "typef": "apt"
    }, 
    {
        "lat": 37.5269585, 
        "lng": 127.122368, 
        "name": " 서울특별시 강동구 성내동 459 2 청구빌라트", 
        "rn": 4022, 
        "typef": "apt"
    }, 
    {
        "lat": 37.4746742, 
        "lng": 126.971725, 
        "name": " 서울특별시 관악구 남현동 1053 5 풍산캐슬", 
        "rn": 1708, 
        "typef": "apt"
    }, 
    {
        "lat": 37.5634003, 
        "lng": 126.955544, 
        "name": " 서울특별시 서대문구 북아현동 1 1836 조은2차", 
        "rn": 2947, 
        "typef": "apt"
    }, 
    {
        "lat": 37.5144043, 
        "lng": 127.008102, 
        "name": " 서울특별시 서초구 잠원동 55 12 신반포16", 
        "rn": 6192, 
        "typef": "apt"
    }, 
    {
        "lat": 37.5063402, 
        "lng": 127.0608974, 
        "name": "대명중학교", 
        "rn": 25, 
        "typef": "sch"
    }, 
    {
        "lat": 37.4904594, 
        "lng": 126.850845, 
        "name": " 서울특별시 구로구 개봉동 479 0 진로", 
        "rn": 252, 
        "typef": "apt"
    }, 
    {
        "lat": 37.6629833, 
        "lng": 127.0497887, 
        "name": "창동중학교", 
        "rn": 93, 
        "typef": "sch"
    }, 
    {
        "lat": 37.4681053, 
        "lng": 126.94191, 
        "name": " 서울특별시 관악구 신림동 233 11 LIG5차", 
        "rn": 3009, 
        "typef": "apt"
    }, 
    {
        "lat": 37.5588417, 
        "lng": 126.902229, 
        "name": " 서울특별시 마포구 망원동 433 9 미원2", 
        "rn": 3381, 
        "typef": "apt"
    }, 
    {
        "lat": 37.4907295, 
        "lng": 127.0533366, 
        "name": "숙명여자중학교", 
        "rn": 12, 
        "typef": "sch"
    }, 
    {
        "lat": 37.6277237, 
        "lng": 127.070877, 
        "name": " 서울특별시 노원구 공릉동 753 0 길성그랑프리텔아파트", 
        "rn": 2137, 
        "typef": "apt"
    }, 
    {
        "lat": 37.6032791, 
        "lng": 126.930489, 
        "name": " 서울특별시 은평구 녹번동 90 2 보배빌(90-2)", 
        "rn": 1016, 
        "typef": "apt"
    }, 
    {
        "lat": 37.4922523, 
        "lng": 126.995026, 
        "name": " 서울특별시 서초구 방배동 843 1 파인빌리지", 
        "rn": 5157, 
        "typef": "apt"
    }, 
    {
        "lat": 37.5288696, 
        "lng": 127.046631, 
        "name": " 서울특별시 강남구 청담동 102 0 연세리버테라스", 
        "rn": 5524, 
        "typef": "apt"
    }, 
    {
        "lat": 37.5558123, 
        "lng": 127.1504916, 
        "name": "배재중학교", 
        "rn": 208, 
        "typef": "sch"
    }, 
    {
        "lat": 37.6120872, 
        "lng": 127.058876, 
        "name": " 서울특별시 성북구 장위동 50 50 장위동동원베네스트", 
        "rn": 1714, 
        "typef": "apt"
    }, 
    {
        "lat": 37.5683365, 
        "lng": 126.808594, 
        "name": " 서울특별시 강서구 방화동 546 1 방화3차우림루미아트", 
        "rn": 2873, 
        "typef": "apt"
    }, 
    {
        "lat": 37.5467911, 
        "lng": 127.133759, 
        "name": " 서울특별시 강동구 천호동 293 8 이연아마빌레(293-8)", 
        "rn": 34, 
        "typef": "apt"
    }, 
    {
        "lat": 37.5458794, 
        "lng": 126.846008, 
        "name": " 서울특별시 강서구 화곡동 24 123 화성파크빌", 
        "rn": 417, 
        "typef": "apt"
    }, 
    {
        "lat": 37.6213455, 
        "lng": 127.073349, 
        "name": " 서울특별시 노원구 공릉동 575 24 라메즈아파트", 
        "rn": 935, 
        "typef": "apt"
    }, 
    {
        "lat": 37.5161458, 
        "lng": 127.1388726, 
        "name": "오륜중학교", 
        "rn": 11, 
        "typef": "sch"
    }, 
    {
        "lat": 37.5037117, 
        "lng": 127.057487, 
        "name": " 서울특별시 강남구 대치동 902 0 포스코더샵", 
        "rn": 6296, 
        "typef": "apt"
    }, 
    {
        "lat": 37.523952, 
        "lng": 126.9923454, 
        "name": "한강중학교", 
        "rn": 74, 
        "typef": "sch"
    }, 
    {
        "lat": 37.5323982, 
        "lng": 126.844734, 
        "name": " 서울특별시 강서구 화곡동 348 18 태흥", 
        "rn": 414, 
        "typef": "apt"
    }, 
    {
        "lat": 37.5350761, 
        "lng": 127.143425, 
        "name": " 서울특별시 강동구 길동 228 0 해맞이에이동", 
        "rn": 2084, 
        "typef": "apt"
    }, 
    {
        "lat": 37.5012093, 
        "lng": 126.86187, 
        "name": " 서울특별시 구로구 고척동 52 332 한효", 
        "rn": 1572, 
        "typef": "apt"
    }, 
    {
        "lat": 37.519981, 
        "lng": 126.8365553, 
        "name": " 서울특별시 양천구 신월동 203 18 주함헤븐105동", 
        "rn": 618, 
        "typef": "apt"
    }, 
    {
        "lat": 37.5389862, 
        "lng": 127.138374, 
        "name": " 서울특별시 강동구 길동 380 1 SM빌", 
        "rn": 1101, 
        "typef": "apt"
    }, 
    {
        "lat": 37.5024223, 
        "lng": 127.03759, 
        "name": " 서울특별시 강남구 역삼동 823 7 강남역우정에쉐르", 
        "rn": 6301, 
        "typef": "apt"
    }, 
    {
        "lat": 37.5258751, 
        "lng": 127.143456, 
        "name": " 서울특별시 강동구 둔촌동 170 1 둔촌주공4단지", 
        "rn": 5935, 
        "typef": "apt"
    }, 
    {
        "lat": 37.5191803, 
        "lng": 126.973557, 
        "name": " 서울특별시 용산구 이촌동 300 23 한강맨숀", 
        "rn": 6462, 
        "typef": "apt"
    }, 
    {
        "lat": 37.5957642, 
        "lng": 126.915794, 
        "name": " 서울특별시 은평구 응암동 122 30 길훈", 
        "rn": 1135, 
        "typef": "apt"
    }, 
    {
        "lat": 37.6091995, 
        "lng": 127.036186, 
        "name": " 서울특별시 성북구 하월곡동 225 0 래미안월곡", 
        "rn": 4319, 
        "typef": "apt"
    }, 
    {
        "lat": 37.5159836, 
        "lng": 127.046211, 
        "name": " 서울특별시 강남구 삼성동 14 1 삼성동중앙하이츠빌리지", 
        "rn": 6417, 
        "typef": "apt"
    }, 
    {
        "lat": 37.614624, 
        "lng": 126.928207, 
        "name": " 서울특별시 은평구 불광동 248 0 라이프미성", 
        "rn": 2318, 
        "typef": "apt"
    }, 
    {
        "lat": 37.5034943, 
        "lng": 127.115601, 
        "name": " 서울특별시 송파구 송파동 100 0 한양파크뷰", 
        "rn": 4259, 
        "typef": "apt"
    }, 
    {
        "lat": 37.4718361, 
        "lng": 126.981041, 
        "name": " 서울특별시 관악구 남현동 602 329 뉴타운1동(A동)", 
        "rn": 4238, 
        "typef": "apt"
    }, 
    {
        "lat": 37.551815, 
        "lng": 126.976051, 
        "name": " 서울특별시 용산구 후암동 244 106 후암", 
        "rn": 5180, 
        "typef": "apt"
    }, 
    {
        "lat": 37.5221634, 
        "lng": 126.906403, 
        "name": " 서울특별시 영등포구 영등포동5가 49 1 현대프라자", 
        "rn": 1902, 
        "typef": "apt"
    }, 
    {
        "lat": 37.5679512, 
        "lng": 127.024925, 
        "name": " 서울특별시 성동구 상왕십리동 811 0 텐즈힐", 
        "rn": 5856, 
        "typef": "apt"
    }, 
    {
        "lat": 37.4737129, 
        "lng": 126.90448, 
        "name": " 서울특별시 금천구 독산동 976 6 리치힐(976-6)", 
        "rn": 1511, 
        "typef": "apt"
    }, 
    {
        "lat": 37.6486664, 
        "lng": 127.074234, 
        "name": " 서울특별시 노원구 중계동 360 15 건영3", 
        "rn": 5006, 
        "typef": "apt"
    }, 
    {
        "lat": 37.5514908, 
        "lng": 127.006294, 
        "name": " 서울특별시 중구 신당동 432 479 초원", 
        "rn": 1203, 
        "typef": "apt"
    }, 
    {
        "lat": 37.5610657, 
        "lng": 126.916656, 
        "name": " 서울특별시 마포구 성산동 210 10 골든빌(210-10)", 
        "rn": 1846, 
        "typef": "apt"
    }, 
    {
        "lat": 37.6086693, 
        "lng": 126.921227, 
        "name": " 서울특별시 은평구 대조동 231 0 삼성타운", 
        "rn": 2418, 
        "typef": "apt"
    }, 
    {
        "lat": 37.5561943, 
        "lng": 127.013824, 
        "name": " 서울특별시 중구 신당동 333 9 성지", 
        "rn": 4527, 
        "typef": "apt"
    }, 
    {
        "lat": 37.4824257, 
        "lng": 126.94767, 
        "name": " 서울특별시 관악구 봉천동 893 1 외 3필지 프라비다M", 
        "rn": 5942, 
        "typef": "apt"
    }, 
    {
        "lat": 37.631649, 
        "lng": 127.021133, 
        "name": " 서울특별시 강북구 수유동 52 27 현대맨션(52-27)", 
        "rn": 1064, 
        "typef": "apt"
    }, 
    {
        "lat": 37.6315002, 
        "lng": 127.059624, 
        "name": " 서울특별시 노원구 월계동 322 1 성원(사슴4)", 
        "rn": 2103, 
        "typef": "apt"
    }, 
    {
        "lat": 37.5096283, 
        "lng": 127.015221, 
        "name": " 서울특별시 서초구 잠원동 59 12 노블레스", 
        "rn": 4782, 
        "typef": "apt"
    }, 
    {
        "lat": 37.5069389, 
        "lng": 127.131149, 
        "name": " 서울특별시 송파구 오금동 26 3 다성파크뷰", 
        "rn": 4287, 
        "typef": "apt"
    }, 
    {
        "lat": 37.4995728, 
        "lng": 126.890152, 
        "name": " 서울특별시 구로구 구로동 108 4 아스타빌", 
        "rn": 972, 
        "typef": "apt"
    }, 
    {
        "lat": 37.5112991, 
        "lng": 127.126915, 
        "name": " 서울특별시 송파구 방이동 185 0 인택파크랜드", 
        "rn": 4788, 
        "typef": "apt"
    }, 
    {
        "lat": 37.4819794, 
        "lng": 126.852097, 
        "name": " 서울특별시 구로구 개봉동 313 32 동서빌라(313-32)", 
        "rn": 717, 
        "typef": "apt"
    }, 
    {
        "lat": 37.4979019, 
        "lng": 126.831184, 
        "name": " 서울특별시 구로구 궁동 182 11 다청림(103동)", 
        "rn": 2167, 
        "typef": "apt"
    }, 
    {
        "lat": 37.5275726, 
        "lng": 126.995567, 
        "name": " 서울특별시 용산구 동빙고동 1 72 파인힐빌", 
        "rn": 4806, 
        "typef": "apt"
    }, 
    {
        "lat": 37.5028114, 
        "lng": 127.024529, 
        "name": " 서울특별시 서초구 서초동 1303 35 강남태영데시앙루브", 
        "rn": 5450, 
        "typef": "apt"
    }, 
    {
        "lat": 37.456356, 
        "lng": 126.900299, 
        "name": " 서울특별시 금천구 시흥동 882 11 신동힐탑", 
        "rn": 1427, 
        "typef": "apt"
    }, 
    {
        "lat": 37.4883804, 
        "lng": 127.145592, 
        "name": " 서울특별시 송파구 거여동 294 0 거여5단지", 
        "rn": 4944, 
        "typef": "apt"
    }, 
    {
        "lat": 37.48312, 
        "lng": 126.986183, 
        "name": " 서울특별시 서초구 방배동 956 8 네스코", 
        "rn": 5024, 
        "typef": "apt"
    }, 
    {
        "lat": 37.5003204, 
        "lng": 127.044579, 
        "name": " 서울특별시 강남구 역삼동 711 0 개나리6", 
        "rn": 6389, 
        "typef": "apt"
    }, 
    {
        "lat": 37.6143913, 
        "lng": 126.915688, 
        "name": " 서울특별시 은평구 갈현동 474 4 행운", 
        "rn": 508, 
        "typef": "apt"
    }, 
    {
        "lat": 37.4968834, 
        "lng": 126.874367, 
        "name": " 서울특별시 구로구 구로동 1268 0 영화참마음", 
        "rn": 2324, 
        "typef": "apt"
    }, 
    {
        "lat": 37.541523, 
        "lng": 126.963226, 
        "name": " 서울특별시 용산구 효창동 5 47 효창드림빌", 
        "rn": 3196, 
        "typef": "apt"
    }, 
    {
        "lat": 37.5364895, 
        "lng": 126.8663661, 
        "name": "영도중학교", 
        "rn": 156, 
        "typef": "sch"
    }, 
    {
        "lat": 37.6231728, 
        "lng": 127.071358, 
        "name": " 서울특별시 노원구 공릉동 492 1 대아2차", 
        "rn": 3177, 
        "typef": "apt"
    }, 
    {
        "lat": 37.5420914, 
        "lng": 126.935608, 
        "name": " 서울특별시 마포구 현석동 118 0 밤섬 예가 클래식", 
        "rn": 5896, 
        "typef": "apt"
    }, 
    {
        "lat": 37.4985428, 
        "lng": 127.065849, 
        "name": " 서울특별시 강남구 대치동 316 0 은마", 
        "rn": 6401, 
        "typef": "apt"
    }, 
    {
        "lat": 37.5295868, 
        "lng": 127.131294, 
        "name": " 서울특별시 강동구 성내동 420 16 대주그린빌", 
        "rn": 2650, 
        "typef": "apt"
    }, 
    {
        "lat": 37.5926628, 
        "lng": 126.920517, 
        "name": " 서울특별시 은평구 응암동 762 0 녹번역센트레빌", 
        "rn": 4448, 
        "typef": "apt"
    }, 
    {
        "lat": 37.5498848, 
        "lng": 126.869614, 
        "name": " 서울특별시 강서구 염창동 276 12 세왕네트빌", 
        "rn": 1169, 
        "typef": "apt"
    }, 
    {
        "lat": 37.5359255, 
        "lng": 126.8779791, 
        "name": " 서울특별시 양천구 목동 907 5 목동가든스위트", 
        "rn": 3803, 
        "typef": "apt"
    }, 
    {
        "lat": 37.5450041, 
        "lng": 126.8675736, 
        "name": " 서울특별시 양천구 목동 549 0 목동금호베스트빌", 
        "rn": 4192, 
        "typef": "apt"
    }, 
    {
        "lat": 37.565094, 
        "lng": 127.045265, 
        "name": " 서울특별시 성동구 마장동 784 0 세림", 
        "rn": 4124, 
        "typef": "apt"
    }, 
    {
        "lat": 37.5916405, 
        "lng": 126.920448, 
        "name": " 서울특별시 은평구 응암동 402 42 뉴월드(402-42)", 
        "rn": 1623, 
        "typef": "apt"
    }, 
    {
        "lat": 37.5348358, 
        "lng": 126.85968, 
        "name": " 서울특별시 강서구 화곡동 1160 0 상진지오벨리", 
        "rn": 1042, 
        "typef": "apt"
    }, 
    {
        "lat": 37.5403214, 
        "lng": 127.045036, 
        "name": " 서울특별시 성동구 성수동1가 710 0 LIG건영", 
        "rn": 5511, 
        "typef": "apt"
    }, 
    {
        "lat": 37.4679298, 
        "lng": 126.932266, 
        "name": " 서울특별시 관악구 신림동 1559 19 상목에버빌B", 
        "rn": 1076, 
        "typef": "apt"
    }, 
    {
        "lat": 37.6172523, 
        "lng": 127.072372, 
        "name": " 서울특별시 노원구 공릉동 690 23 탑스빌아파트(102동)", 
        "rn": 1474, 
        "typef": "apt"
    }, 
    {
        "lat": 37.5784225, 
        "lng": 127.020691, 
        "name": " 서울특별시 종로구 숭인동 482 0 동문 (482-0)", 
        "rn": 2982, 
        "typef": "apt"
    }, 
    {
        "lat": 37.6212234, 
        "lng": 127.084816, 
        "name": " 서울특별시 노원구 공릉동 90 0 청솔아파트", 
        "rn": 2662, 
        "typef": "apt"
    }, 
    {
        "lat": 37.5360489, 
        "lng": 127.137459, 
        "name": " 서울특별시 강동구 길동 414 10 강동한신휴플러스", 
        "rn": 2694, 
        "typef": "apt"
    }, 
    {
        "lat": 37.5331192, 
        "lng": 126.898285, 
        "name": " 서울특별시 영등포구 당산동5가 7 2 유원2", 
        "rn": 4243, 
        "typef": "apt"
    }, 
    {
        "lat": 37.5368881, 
        "lng": 127.077766, 
        "name": " 서울특별시 광진구 자양동 798 4 대보", 
        "rn": 3048, 
        "typef": "apt"
    }, 
    {
        "lat": 37.5447273, 
        "lng": 126.887688, 
        "name": " 서울특별시 영등포구 양평동6가 95 4 리츠뷰", 
        "rn": 5664, 
        "typef": "apt"
    }, 
    {
        "lat": 37.5334969, 
        "lng": 127.134178, 
        "name": " 서울특별시 강동구 성내동 382 16 샤인빌(B동)", 
        "rn": 1339, 
        "typef": "apt"
    }, 
    {
        "lat": 37.491993, 
        "lng": 126.954956, 
        "name": " 서울특별시 동작구 상도동 126 32 현산푸른숲", 
        "rn": 441, 
        "typef": "apt"
    }, 
    {
        "lat": 37.4841042, 
        "lng": 127.124283, 
        "name": " 서울특별시 송파구 문정동 58 17 동부화이트빌", 
        "rn": 3850, 
        "typef": "apt"
    }, 
    {
        "lat": 37.5364838, 
        "lng": 127.068352, 
        "name": " 서울특별시 광진구 자양동 784 1 대동", 
        "rn": 5176, 
        "typef": "apt"
    }, 
    {
        "lat": 37.66782, 
        "lng": 127.031097, 
        "name": " 서울특별시 도봉구 방학동 612 34 태양아파트", 
        "rn": 134, 
        "typef": "apt"
    }, 
    {
        "lat": 37.5263481, 
        "lng": 127.0541, 
        "name": " 서울특별시 강남구 청담동 128 18 상지리츠빌카일룸2차", 
        "rn": 6534, 
        "typef": "apt"
    }, 
    {
        "lat": 37.5395622, 
        "lng": 126.858147, 
        "name": " 서울특별시 강서구 화곡동 488 50 신영", 
        "rn": 115, 
        "typef": "apt"
    }, 
    {
        "lat": 37.5344925, 
        "lng": 127.010674, 
        "name": " 서울특별시 용산구 한남동 27 2 형우베스트빌3차", 
        "rn": 6140, 
        "typef": "apt"
    }, 
    {
        "lat": 37.4674911, 
        "lng": 126.894981, 
        "name": " 서울특별시 금천구 독산동 293 10 독산현대", 
        "rn": 2016, 
        "typef": "apt"
    }, 
    {
        "lat": 37.509758, 
        "lng": 127.122589, 
        "name": " 서울특별시 송파구 방이동 212 3 한성 나이스빌", 
        "rn": 4587, 
        "typef": "apt"
    }, 
    {
        "lat": 37.5351791, 
        "lng": 127.057045, 
        "name": " 서울특별시 성동구 성수동2가 609 2 강변임광", 
        "rn": 5264, 
        "typef": "apt"
    }, 
    {
        "lat": 37.5287123, 
        "lng": 127.1402895, 
        "name": "한산중학교", 
        "rn": 62, 
        "typef": "sch"
    }, 
    {
        "lat": 37.667717, 
        "lng": 127.079903, 
        "name": " 서울특별시 노원구 상계동 52 1 불암신기 102동", 
        "rn": 585, 
        "typef": "apt"
    }, 
    {
        "lat": 37.5477448, 
        "lng": 127.13446, 
        "name": " 서울특별시 강동구 암사동 488 10 다성이즈빌", 
        "rn": 2875, 
        "typef": "apt"
    }, 
    {
        "lat": 37.5581741, 
        "lng": 126.98175, 
        "name": " 서울특별시 중구 회현동1가 208 0 남산 롯데캐슬 아이리스", 
        "rn": 5992, 
        "typef": "apt"
    }, 
    {
        "lat": 37.5553513, 
        "lng": 126.900299, 
        "name": " 서울특별시 마포구 망원동 418 5 크라운빌", 
        "rn": 2169, 
        "typef": "apt"
    }, 
    {
        "lat": 37.5508995, 
        "lng": 127.005775, 
        "name": " 서울특별시 중구 신당동 432 921 푸른마을(432-921)", 
        "rn": 854, 
        "typef": "apt"
    }, 
    {
        "lat": 37.5548439, 
        "lng": 127.025352, 
        "name": " 서울특별시 성동구 금호동1가 633 0 벽산", 
        "rn": 4260, 
        "typef": "apt"
    }, 
    {
        "lat": 37.4922371, 
        "lng": 126.958664, 
        "name": " 서울특별시 관악구 봉천동 407 0 현대(관악)", 
        "rn": 2823, 
        "typef": "apt"
    }, 
    {
        "lat": 37.6134491, 
        "lng": 127.077484, 
        "name": " 서울특별시 중랑구 묵동 170 1 묵동자이(2단지)", 
        "rn": 4897, 
        "typef": "apt"
    }, 
    {
        "lat": 37.6064186, 
        "lng": 127.030022, 
        "name": " 서울특별시 성북구 하월곡동 88 64 성북힐스테이트(101동)", 
        "rn": 3559, 
        "typef": "apt"
    }, 
    {
        "lat": 37.5404167, 
        "lng": 127.141586, 
        "name": " 서울특별시 강동구 길동 348 4 다성이즈빌", 
        "rn": 2695, 
        "typef": "apt"
    }, 
    {
        "lat": 37.5247879, 
        "lng": 127.127411, 
        "name": " 서울특별시 강동구 성내동 468 3 파크뷰캐슬", 
        "rn": 5474, 
        "typef": "apt"
    }, 
    {
        "lat": 37.5301743, 
        "lng": 126.844955, 
        "name": " 서울특별시 강서구 화곡동 918 6 크로스캐슬", 
        "rn": 1062, 
        "typef": "apt"
    }, 
    {
        "lat": 37.5851173, 
        "lng": 126.938301, 
        "name": " 서울특별시 서대문구 홍제동 354 6 서강", 
        "rn": 382, 
        "typef": "apt"
    }, 
    {
        "lat": 37.5314827, 
        "lng": 126.891922, 
        "name": " 서울특별시 영등포구 양평동3가 90 1 거성파스텔", 
        "rn": 3893, 
        "typef": "apt"
    }, 
    {
        "lat": 37.4910164, 
        "lng": 126.977112, 
        "name": " 서울특별시 동작구 사당동 1137 0 신동아5", 
        "rn": 4845, 
        "typef": "apt"
    }, 
    {
        "lat": 37.5400914, 
        "lng": 126.8694256, 
        "name": " 서울특별시 양천구 목동 750 5 월드메르디앙", 
        "rn": 3775, 
        "typef": "apt"
    }, 
    {
        "lat": 37.5069313, 
        "lng": 126.878342, 
        "name": " 서울특별시 구로구 신도림동 691 0 대림3", 
        "rn": 4207, 
        "typef": "apt"
    }, 
    {
        "lat": 37.5192108, 
        "lng": 127.098129, 
        "name": " 서울특별시 송파구 신천동 7 0 장미1", 
        "rn": 6155, 
        "typef": "apt"
    }, 
    {
        "lat": 37.6295827, 
        "lng": 127.0491809, 
        "name": "염광중학교", 
        "rn": 218, 
        "typef": "sch"
    }, 
    {
        "lat": 37.4955902, 
        "lng": 127.000114, 
        "name": " 서울특별시 서초구 반포동 85 1 리더스빌", 
        "rn": 5424, 
        "typef": "apt"
    }, 
    {
        "lat": 37.5506172, 
        "lng": 126.960976, 
        "name": " 서울특별시 마포구 공덕동 4 32 공덕스카이", 
        "rn": 3638, 
        "typef": "apt"
    }, 
    {
        "lat": 37.5227322, 
        "lng": 126.8385152, 
        "name": " 서울특별시 양천구 신월동 1041 0 삼정그린뷰", 
        "rn": 1761, 
        "typef": "apt"
    }, 
    {
        "lat": 37.4758644, 
        "lng": 126.971504, 
        "name": " 서울특별시 동작구 사당동 1051 6 강남드리움2차", 
        "rn": 2126, 
        "typef": "apt"
    }, 
    {
        "lat": 37.5249329, 
        "lng": 127.114265, 
        "name": " 서울특별시 송파구 풍납동 388 7 우성", 
        "rn": 5513, 
        "typef": "apt"
    }, 
    {
        "lat": 37.5047379, 
        "lng": 127.115982, 
        "name": " 서울특별시 송파구 송파동 151 0 한양아파트", 
        "rn": 5214, 
        "typef": "apt"
    }, 
    {
        "lat": 37.4817963, 
        "lng": 127.054245, 
        "name": " 서울특별시 강남구 개포동 653 0 현대1", 
        "rn": 5916, 
        "typef": "apt"
    }, 
    {
        "lat": 37.6215553, 
        "lng": 127.025475, 
        "name": " 서울특별시 강북구 미아동 811 0 두산위브트레지움", 
        "rn": 4172, 
        "typef": "apt"
    }, 
    {
        "lat": 37.4955597, 
        "lng": 126.994484, 
        "name": " 서울특별시 서초구 방배동 1 62 프레스턴(1-62)", 
        "rn": 5669, 
        "typef": "apt"
    }, 
    {
        "lat": 37.5011612, 
        "lng": 127.1212477, 
        "name": "석촌중학교", 
        "rn": 91, 
        "typef": "sch"
    }, 
    {
        "lat": 37.6100311, 
        "lng": 126.927269, 
        "name": " 서울특별시 은평구 대조동 9 21 모아", 
        "rn": 4380, 
        "typef": "apt"
    }, 
    {
        "lat": 37.4940758, 
        "lng": 126.993568, 
        "name": " 서울특별시 서초구 방배동 797 22 방배5차상지리츠빌", 
        "rn": 5550, 
        "typef": "apt"
    }, 
    {
        "lat": 37.4967194, 
        "lng": 126.993996, 
        "name": " 서울특별시 서초구 반포동 612 32 하늘.바람", 
        "rn": 5300, 
        "typef": "apt"
    }, 
    {
        "lat": 37.5380211, 
        "lng": 126.840408, 
        "name": " 서울특별시 강서구 화곡동 400 60 은하(400-60)", 
        "rn": 198, 
        "typef": "apt"
    }, 
    {
        "lat": 37.571701, 
        "lng": 126.816139, 
        "name": " 서울특별시 강서구 방화동 893 0 동부강서센트레빌3차(893-0)", 
        "rn": 4187, 
        "typef": "apt"
    }, 
    {
        "lat": 37.5480042, 
        "lng": 126.912918, 
        "name": " 서울특별시 마포구 합정동 375 2 그레이스", 
        "rn": 4865, 
        "typef": "apt"
    }, 
    {
        "lat": 37.6041412, 
        "lng": 127.062988, 
        "name": " 서울특별시 동대문구 이문동 428 0 신이문 금호어울림", 
        "rn": 3561, 
        "typef": "apt"
    }, 
    {
        "lat": 37.5039902, 
        "lng": 127.118515, 
        "name": " 서울특별시 송파구 송파동 162 0 송파삼성래미안", 
        "rn": 5674, 
        "typef": "apt"
    }, 
    {
        "lat": 37.5904846, 
        "lng": 127.005562, 
        "name": " 서울특별시 성북구 성북동 179 96 성북좋은", 
        "rn": 4433, 
        "typef": "apt"
    }, 
    {
        "lat": 37.5202332, 
        "lng": 127.01963, 
        "name": " 서울특별시 강남구 신사동 562 24 신사파크빌라B동", 
        "rn": 4613, 
        "typef": "apt"
    }, 
    {
        "lat": 37.5039978, 
        "lng": 127.140038, 
        "name": " 서울특별시 송파구 오금동 119 5 다성이즈빌", 
        "rn": 1269, 
        "typef": "apt"
    }, 
    {
        "lat": 37.5265999, 
        "lng": 127.049065, 
        "name": " 서울특별시 강남구 청담동 121 0 현대빌라트", 
        "rn": 5400, 
        "typef": "apt"
    }, 
    {
        "lat": 37.5837631, 
        "lng": 127.018158, 
        "name": " 서울특별시 성북구 보문동3가 214 0 코지아뜨리에", 
        "rn": 2462, 
        "typef": "apt"
    }, 
    {
        "lat": 37.6084747, 
        "lng": 126.915283, 
        "name": " 서울특별시 은평구 구산동 222 0 세화샤이닝1", 
        "rn": 1582, 
        "typef": "apt"
    }, 
    {
        "lat": 37.5107651, 
        "lng": 127.006493, 
        "name": " 서울특별시 서초구 잠원동 71 12 킴스빌리지", 
        "rn": 6391, 
        "typef": "apt"
    }, 
    {
        "lat": 37.5551186, 
        "lng": 127.033913, 
        "name": " 서울특별시 성동구 행당동 155 1 서울숲더샵", 
        "rn": 6204, 
        "typef": "apt"
    }, 
    {
        "lat": 37.4966011, 
        "lng": 127.051628, 
        "name": " 서울특별시 강남구 역삼동 765 32 역삼2차아이파크", 
        "rn": 6382, 
        "typef": "apt"
    }, 
    {
        "lat": 37.461853, 
        "lng": 126.909729, 
        "name": " 서울특별시 금천구 시흥동 796 7 한빛로얄", 
        "rn": 680, 
        "typef": "apt"
    }, 
    {
        "lat": 37.4759216, 
        "lng": 126.954765, 
        "name": " 서울특별시 관악구 봉천동 1615 17 반석블레스빌", 
        "rn": 2160, 
        "typef": "apt"
    }, 
    {
        "lat": 37.5937538, 
        "lng": 127.060379, 
        "name": " 서울특별시 동대문구 이문동 311 0 래미안이문2차", 
        "rn": 4559, 
        "typef": "apt"
    }, 
    {
        "lat": 37.5570602, 
        "lng": 126.916779, 
        "name": " 서울특별시 마포구 서교동 487 0 대우미래사랑", 
        "rn": 4692, 
        "typef": "apt"
    }, 
    {
        "lat": 37.519981, 
        "lng": 126.8365553, 
        "name": " 서울특별시 양천구 신월동 541 1 오투힐", 
        "rn": 789, 
        "typef": "apt"
    }, 
    {
        "lat": 37.5682832, 
        "lng": 126.9133116, 
        "name": "성사중학교", 
        "rn": 190, 
        "typef": "sch"
    }, 
    {
        "lat": 37.4844475, 
        "lng": 127.036682, 
        "name": " 서울특별시 서초구 양재동 11 17 한솔로이젠트", 
        "rn": 5906, 
        "typef": "apt"
    }, 
    {
        "lat": 37.6109047, 
        "lng": 126.928276, 
        "name": " 서울특별시 은평구 대조동 6 13 예가 크레시아", 
        "rn": 4475, 
        "typef": "apt"
    }, 
    {
        "lat": 37.5047379, 
        "lng": 127.115982, 
        "name": " 서울특별시 송파구 송파동 119 0 한양아파트", 
        "rn": 4833, 
        "typef": "apt"
    }, 
    {
        "lat": 37.4867401, 
        "lng": 127.122597, 
        "name": " 서울특별시 송파구 문정동 55 3 동궁리치웰문정(1차)", 
        "rn": 4984, 
        "typef": "apt"
    }, 
    {
        "lat": 37.6566925, 
        "lng": 127.022461, 
        "name": " 서울특별시 도봉구 방학동 508 0 우성아파트2차", 
        "rn": 1409, 
        "typef": "apt"
    }, 
    {
        "lat": 37.5538712, 
        "lng": 126.899757, 
        "name": " 서울특별시 마포구 망원동 490 0 강변타운", 
        "rn": 3014, 
        "typef": "apt"
    }, 
    {
        "lat": 37.5830421, 
        "lng": 126.94252, 
        "name": " 서울특별시 서대문구 홍제동 322 79 경일", 
        "rn": 485, 
        "typef": "apt"
    }, 
    {
        "lat": 37.5502357, 
        "lng": 127.141312, 
        "name": " 서울특별시 강동구 천호동 22 23 고려(B)", 
        "rn": 2334, 
        "typef": "apt"
    }, 
    {
        "lat": 37.5263443, 
        "lng": 126.88784, 
        "name": " 서울특별시 영등포구 양평동3가 102 0 우림루미아트", 
        "rn": 4348, 
        "typef": "apt"
    }, 
    {
        "lat": 37.5806427, 
        "lng": 126.901756, 
        "name": " 서울특별시 은평구 수색동 413 0 청구", 
        "rn": 3683, 
        "typef": "apt"
    }, 
    {
        "lat": 37.4973145, 
        "lng": 127.151863, 
        "name": " 서울특별시 송파구 마천동 175 0 한보1", 
        "rn": 3406, 
        "typef": "apt"
    }, 
    {
        "lat": 37.4903717, 
        "lng": 126.895294, 
        "name": " 서울특별시 구로구 구로동 1273 0 대림아르빌", 
        "rn": 2401, 
        "typef": "apt"
    }, 
    {
        "lat": 37.5020828, 
        "lng": 127.116928, 
        "name": " 서울특별시 송파구 송파동 173 1 각산", 
        "rn": 4190, 
        "typef": "apt"
    }, 
    {
        "lat": 37.5015831, 
        "lng": 126.90406, 
        "name": " 서울특별시 영등포구 신길동 401 0 슈와이", 
        "rn": 2283, 
        "typef": "apt"
    }, 
    {
        "lat": 37.490654, 
        "lng": 126.972054, 
        "name": " 서울특별시 동작구 사당동 1132 0 롯데캐슬", 
        "rn": 4536, 
        "typef": "apt"
    }, 
    {
        "lat": 37.519981, 
        "lng": 126.8365553, 
        "name": " 서울특별시 양천구 신월동 426 3 방주아크빌", 
        "rn": 572, 
        "typef": "apt"
    }, 
    {
        "lat": 37.5506172, 
        "lng": 126.877083, 
        "name": " 서울특별시 강서구 염창동 257 1 리버펠리스3동", 
        "rn": 1429, 
        "typef": "apt"
    }, 
    {
        "lat": 37.5235138, 
        "lng": 127.050323, 
        "name": " 서울특별시 강남구 청담동 50 5 대우유로카운티", 
        "rn": 6162, 
        "typef": "apt"
    }, 
    {
        "lat": 37.5640106, 
        "lng": 127.072456, 
        "name": " 서울특별시 동대문구 장안동 440 2 상록파라브2차", 
        "rn": 3335, 
        "typef": "apt"
    }, 
    {
        "lat": 37.6436195, 
        "lng": 127.017143, 
        "name": " 서울특별시 강북구 수유동 334 3 썬힐하우스", 
        "rn": 296, 
        "typef": "apt"
    }, 
    {
        "lat": 37.6601105, 
        "lng": 127.062378, 
        "name": " 서울특별시 노원구 상계동 691 0 상계주공7(고층)", 
        "rn": 3735, 
        "typef": "apt"
    }, 
    {
        "lat": 37.4936562, 
        "lng": 127.031021, 
        "name": " 서울특별시 강남구 역삼동 831 45 에스케이허브젠", 
        "rn": 5233, 
        "typef": "apt"
    }, 
    {
        "lat": 37.4869499, 
        "lng": 127.035103, 
        "name": " 서울특별시 강남구 도곡동 950 19 조이너스 도곡", 
        "rn": 5731, 
        "typef": "apt"
    }, 
    {
        "lat": 37.5935326, 
        "lng": 126.908173, 
        "name": " 서울특별시 은평구 신사동 359 0 현대1", 
        "rn": 872, 
        "typef": "apt"
    }, 
    {
        "lat": 37.6217537, 
        "lng": 127.076523, 
        "name": " 서울특별시 노원구 공릉동 585 7 진주브라운", 
        "rn": 1049, 
        "typef": "apt"
    }, 
    {
        "lat": 37.6140594, 
        "lng": 127.080177, 
        "name": " 서울특별시 중랑구 묵동 382 0 신안2", 
        "rn": 2576, 
        "typef": "apt"
    }, 
    {
        "lat": 37.5113297, 
        "lng": 127.108803, 
        "name": " 서울특별시 송파구 송파동 58 4 레이크해모로", 
        "rn": 5434, 
        "typef": "apt"
    }, 
    {
        "lat": 37.5671425, 
        "lng": 126.848373, 
        "name": " 서울특별시 강서구 가양동 1497 0 보람쉬움(1497)", 
        "rn": 2891, 
        "typef": "apt"
    }, 
    {
        "lat": 37.5834122, 
        "lng": 127.031685, 
        "name": " 서울특별시 동대문구 제기동 153 0 안암골벽산", 
        "rn": 3450, 
        "typef": "apt"
    }, 
    {
        "lat": 37.5794106, 
        "lng": 126.9187767, 
        "name": "연희중학교", 
        "rn": 205, 
        "typef": "sch"
    }, 
    {
        "lat": 37.4933586, 
        "lng": 127.119682, 
        "name": " 서울특별시 송파구 가락동 99 6 동부썬빌", 
        "rn": 1386, 
        "typef": "apt"
    }, 
    {
        "lat": 37.4461403, 
        "lng": 126.902435, 
        "name": " 서울특별시 금천구 시흥동 791 40 SM엘루이", 
        "rn": 2930, 
        "typef": "apt"
    }, 
    {
        "lat": 37.5493965, 
        "lng": 126.87365, 
        "name": " 서울특별시 강서구 염창동 263 0 태진한솔", 
        "rn": 3746, 
        "typef": "apt"
    }, 
    {
        "lat": 37.4869308, 
        "lng": 127.044296, 
        "name": " 서울특별시 강남구 도곡동 193 45 필로스(193-45)", 
        "rn": 3866, 
        "typef": "apt"
    }, 
    {
        "lat": 37.526329, 
        "lng": 126.894264, 
        "name": " 서울특별시 영등포구 당산동3가 563 0 당산동2차어울림", 
        "rn": 4890, 
        "typef": "apt"
    }, 
    {
        "lat": 37.5830377, 
        "lng": 127.0960613, 
        "name": "면목중학교", 
        "rn": 311, 
        "typef": "sch"
    }, 
    {
        "lat": 37.6585236, 
        "lng": 127.075951, 
        "name": " 서울특별시 노원구 중계동 602 0 비콘드림힐(602)", 
        "rn": 2957, 
        "typef": "apt"
    }, 
    {
        "lat": 37.4971962, 
        "lng": 127.047699, 
        "name": " 서울특별시 강남구 역삼동 759 1 은하수", 
        "rn": 6075, 
        "typef": "apt"
    }, 
    {
        "lat": 37.5052338, 
        "lng": 126.85923, 
        "name": " 서울특별시 구로구 고척동 171 21 해피그린(171-21)", 
        "rn": 340, 
        "typef": "apt"
    }, 
    {
        "lat": 37.5046082, 
        "lng": 127.111931, 
        "name": " 서울특별시 송파구 송파동 170 0 SK", 
        "rn": 5079, 
        "typef": "apt"
    }, 
    {
        "lat": 37.606617, 
        "lng": 127.097015, 
        "name": " 서울특별시 중랑구 신내동 591 0 동성4", 
        "rn": 1594, 
        "typef": "apt"
    }, 
    {
        "lat": 37.4867134, 
        "lng": 126.885925, 
        "name": " 서울특별시 구로구 구로동 807 26 (807-26)", 
        "rn": 216, 
        "typef": "apt"
    }, 
    {
        "lat": 37.6262512, 
        "lng": 127.039268, 
        "name": " 서울특별시 강북구 번동 136 0 번동솔그린", 
        "rn": 1759, 
        "typef": "apt"
    }, 
    {
        "lat": 37.5637321, 
        "lng": 127.025635, 
        "name": " 서울특별시 중구 신당동 845 0 한진그랑빌", 
        "rn": 3845, 
        "typef": "apt"
    }, 
    {
        "lat": 37.5206604, 
        "lng": 126.968948, 
        "name": " 서울특별시 용산구 이촌동 302 53 골든맨숀", 
        "rn": 3228, 
        "typef": "apt"
    }, 
    {
        "lat": 37.5707245, 
        "lng": 126.809822, 
        "name": " 서울특별시 강서구 방화동 868 0 신안테트빌1단지", 
        "rn": 2439, 
        "typef": "apt"
    }, 
    {
        "lat": 37.4911728, 
        "lng": 126.92498, 
        "name": " 서울특별시 동작구 신대방동 708 0 해태보라매타워", 
        "rn": 3787, 
        "typef": "apt"
    }, 
    {
        "lat": 37.6016273, 
        "lng": 126.908394, 
        "name": " 서울특별시 은평구 신사동 364 0 임탑(364)", 
        "rn": 308, 
        "typef": "apt"
    }, 
    {
        "lat": 37.4718819, 
        "lng": 127.04055, 
        "name": " 서울특별시 서초구 양재동 312 1 양재동메트로", 
        "rn": 5200, 
        "typef": "apt"
    }, 
    {
        "lat": 37.4890175, 
        "lng": 127.022827, 
        "name": " 서울특별시 서초구 서초동 1616 10 서초극동스타클래스", 
        "rn": 5536, 
        "typef": "apt"
    }, 
    {
        "lat": 37.5806999, 
        "lng": 127.015717, 
        "name": " 서울특별시 종로구 숭인동 201 11 종로유케이201", 
        "rn": 6184, 
        "typef": "apt"
    }, 
    {
        "lat": 37.5475082, 
        "lng": 126.875816, 
        "name": " 서울특별시 강서구 염창동 291 0 현대3", 
        "rn": 2300, 
        "typef": "apt"
    }, 
    {
        "lat": 37.4827347, 
        "lng": 126.907516, 
        "name": " 서울특별시 관악구 신림동 569 5 늘푸른(569-5)", 
        "rn": 2512, 
        "typef": "apt"
    }, 
    {
        "lat": 37.6553192, 
        "lng": 127.031662, 
        "name": " 서울특별시 도봉구 쌍문동 160 0 미라보", 
        "rn": 1293, 
        "typef": "apt"
    }, 
    {
        "lat": 37.519981, 
        "lng": 126.8365553, 
        "name": " 서울특별시 양천구 신월동 54 10 은하수", 
        "rn": 1835, 
        "typef": "apt"
    }, 
    {
        "lat": 37.5265617, 
        "lng": 126.908157, 
        "name": " 서울특별시 영등포구 당산동 121 134 성재I캐슬 2차", 
        "rn": 1895, 
        "typef": "apt"
    }, 
    {
        "lat": 37.4971924, 
        "lng": 127.001419, 
        "name": " 서울특별시 서초구 반포동 550 34 반포서래월드메르디A", 
        "rn": 3415, 
        "typef": "apt"
    }, 
    {
        "lat": 37.5960866, 
        "lng": 127.1042177, 
        "name": "봉화중학교", 
        "rn": 338, 
        "typef": "sch"
    }, 
    {
        "lat": 37.5166014, 
        "lng": 126.8638714, 
        "name": " 서울특별시 양천구 신정동 1007 11 이스타팰리스", 
        "rn": 2425, 
        "typef": "apt"
    }, 
    {
        "lat": 37.575058, 
        "lng": 126.808983, 
        "name": " 서울특별시 강서구 방화동 879 0 월드메르디앙(879)", 
        "rn": 2872, 
        "typef": "apt"
    }, 
    {
        "lat": 37.6527176, 
        "lng": 127.06456, 
        "name": " 서울특별시 노원구 상계동 721 0 상계주공5(저층)", 
        "rn": 4859, 
        "typef": "apt"
    }, 
    {
        "lat": 37.5535622, 
        "lng": 126.840569, 
        "name": " 서울특별시 강서구 내발산동 672 15 원다벨라빌", 
        "rn": 1303, 
        "typef": "apt"
    }, 
    {
        "lat": 37.5238075, 
        "lng": 127.131493, 
        "name": " 서울특별시 강동구 성내동 445 4 광남벨라스타워", 
        "rn": 1819, 
        "typef": "apt"
    }, 
    {
        "lat": 37.6556625, 
        "lng": 127.041016, 
        "name": " 서울특별시 도봉구 창동 813 0 현대조합", 
        "rn": 1928, 
        "typef": "apt"
    }, 
    {
        "lat": 37.5452919, 
        "lng": 127.139809, 
        "name": " 서울특별시 강동구 천호동 40 9 아크로파크", 
        "rn": 2507, 
        "typef": "apt"
    }, 
    {
        "lat": 37.4810104, 
        "lng": 127.040367, 
        "name": " 서울특별시 서초구 양재동 19 0 해청", 
        "rn": 2935, 
        "typef": "apt"
    }, 
    {
        "lat": 37.5150986, 
        "lng": 127.039909, 
        "name": " 서울특별시 강남구 논현동 244 9 상지리츠빌", 
        "rn": 5606, 
        "typef": "apt"
    }, 
    {
        "lat": 37.5718765, 
        "lng": 126.808006, 
        "name": " 서울특별시 강서구 방화동 537 1 지니스힐", 
        "rn": 1245, 
        "typef": "apt"
    }, 
    {
        "lat": 37.6472435, 
        "lng": 127.014091, 
        "name": " 서울특별시 강북구 수유동 282 11 파크(가)", 
        "rn": 997, 
        "typef": "apt"
    }, 
    {
        "lat": 37.5610886, 
        "lng": 126.957024, 
        "name": " 서울특별시 서대문구 북아현동 189 24 북아현4차", 
        "rn": 2203, 
        "typef": "apt"
    }, 
    {
        "lat": 37.6443024, 
        "lng": 127.017075, 
        "name": " 서울특별시 강북구 수유동 729 0 수유현대", 
        "rn": 1548, 
        "typef": "apt"
    }, 
    {
        "lat": 37.5045433, 
        "lng": 126.94339, 
        "name": " 서울특별시 동작구 상도동 529 0 상도두산위브", 
        "rn": 5369, 
        "typef": "apt"
    }, 
    {
        "lat": 37.5192274, 
        "lng": 126.8409248, 
        "name": " 서울특별시 양천구 신월동 1046 0 삼익2차플라주", 
        "rn": 1181, 
        "typef": "apt"
    }, 
    {
        "lat": 37.5499878, 
        "lng": 127.134026, 
        "name": " 서울특별시 강동구 암사동 485 1 영진해가든(1동)", 
        "rn": 2470, 
        "typef": "apt"
    }, 
    {
        "lat": 37.581665, 
        "lng": 126.881264, 
        "name": " 서울특별시 마포구 상암동 1660 0 상암월드컵파크7단지", 
        "rn": 5718, 
        "typef": "apt"
    }, 
    {
        "lat": 37.4876289, 
        "lng": 127.12851, 
        "name": " 서울특별시 송파구 문정동 15 0 문정동아", 
        "rn": 4173, 
        "typef": "apt"
    }, 
    {
        "lat": 37.5109024, 
        "lng": 126.930977, 
        "name": " 서울특별시 동작구 대방동 502 0 대방동현대", 
        "rn": 4199, 
        "typef": "apt"
    }, 
    {
        "lat": 37.5294571, 
        "lng": 127.037552, 
        "name": " 서울특별시 강남구 압구정동 489 0 한양3", 
        "rn": 6439, 
        "typef": "apt"
    }, 
    {
        "lat": 37.4985161, 
        "lng": 127.04644, 
        "name": " 서울특별시 강남구 역삼동 754 0 개나리래미안", 
        "rn": 6411, 
        "typef": "apt"
    }, 
    {
        "lat": 37.4872971, 
        "lng": 127.027336, 
        "name": " 서울특별시 서초구 서초동 1344 2 서초한양수자인", 
        "rn": 5586, 
        "typef": "apt"
    }, 
    {
        "lat": 37.5504303, 
        "lng": 126.876953, 
        "name": " 서울특별시 강서구 염창동 257 4 리버펠리스4동", 
        "rn": 1977, 
        "typef": "apt"
    }, 
    {
        "lat": 37.4998474, 
        "lng": 126.89006, 
        "name": " 서울특별시 구로구 구로동 108 2 새솔금호", 
        "rn": 2230, 
        "typef": "apt"
    }, 
    {
        "lat": 37.5991402, 
        "lng": 127.005081, 
        "name": " 서울특별시 성북구 정릉동 508 38 동원빌라", 
        "rn": 4, 
        "typef": "apt"
    }, 
    {
        "lat": 37.519981, 
        "lng": 126.8365553, 
        "name": " 서울특별시 양천구 신월동 547 1 명산그린빌", 
        "rn": 179, 
        "typef": "apt"
    }, 
    {
        "lat": 37.4924279, 
        "lng": 126.9624349, 
        "name": "상현중학교", 
        "rn": 148, 
        "typef": "sch"
    }, 
    {
        "lat": 37.5463224, 
        "lng": 126.9810267, 
        "name": "용산중학교", 
        "rn": 220, 
        "typef": "sch"
    }, 
    {
        "lat": 37.6515808, 
        "lng": 127.078262, 
        "name": " 서울특별시 노원구 중계동 366 0 신동아(366)", 
        "rn": 4290, 
        "typef": "apt"
    }, 
    {
        "lat": 37.5362892, 
        "lng": 127.147034, 
        "name": " 서울특별시 강동구 길동 470 0 현대1", 
        "rn": 3971, 
        "typef": "apt"
    }, 
    {
        "lat": 37.441246, 
        "lng": 126.906319, 
        "name": " 서울특별시 금천구 시흥동 948 0 삼일", 
        "rn": 528, 
        "typef": "apt"
    }, 
    {
        "lat": 37.6615562, 
        "lng": 127.076164, 
        "name": " 서울특별시 노원구 중계동 586 0 건영재건축(586)", 
        "rn": 1622, 
        "typef": "apt"
    }, 
    {
        "lat": 37.5411377, 
        "lng": 127.145973, 
        "name": " 서울특별시 강동구 길동 343 2 현대웰하임(201동)", 
        "rn": 5759, 
        "typef": "apt"
    }, 
    {
        "lat": 37.5289307, 
        "lng": 127.134209, 
        "name": " 서울특별시 강동구 성내동 405 5 한솔애리즈(405-5)", 
        "rn": 3619, 
        "typef": "apt"
    }, 
    {
        "lat": 37.6586609, 
        "lng": 127.011894, 
        "name": " 서울특별시 강북구 우이동 117 3 플레움", 
        "rn": 628, 
        "typef": "apt"
    }, 
    {
        "lat": 37.4758644, 
        "lng": 126.99427, 
        "name": " 서울특별시 서초구 방배동 593 24 방배2차상지리츠빌", 
        "rn": 1927, 
        "typef": "apt"
    }, 
    {
        "lat": 37.5689545, 
        "lng": 127.07032, 
        "name": " 서울특별시 동대문구 장안동 365 4 서희스타힐스", 
        "rn": 3994, 
        "typef": "apt"
    }, 
    {
        "lat": 37.519981, 
        "lng": 126.8365553, 
        "name": " 서울특별시 양천구 신월동 447 3 상아아름", 
        "rn": 658, 
        "typef": "apt"
    }, 
    {
        "lat": 37.5748672, 
        "lng": 127.046295, 
        "name": " 서울특별시 동대문구 전농동 645 2 동아", 
        "rn": 3145, 
        "typef": "apt"
    }, 
    {
        "lat": 37.4870453, 
        "lng": 126.965538, 
        "name": " 서울특별시 동작구 사당동 1143 0 남해오네뜨", 
        "rn": 3774, 
        "typef": "apt"
    }, 
    {
        "lat": 37.5162354, 
        "lng": 127.048439, 
        "name": " 서울특별시 강남구 삼성동 16 2 삼성동힐스테이트 1단지", 
        "rn": 6473, 
        "typef": "apt"
    }, 
    {
        "lat": 37.5484276, 
        "lng": 127.069824, 
        "name": " 서울특별시 광진구 군자동 358 9 동양파라곤(2)", 
        "rn": 5203, 
        "typef": "apt"
    }, 
    {
        "lat": 37.5870285, 
        "lng": 126.943871, 
        "name": " 서울특별시 서대문구 홍제동 315 41 대성아파트", 
        "rn": 516, 
        "typef": "apt"
    }, 
    {
        "lat": 37.5557404, 
        "lng": 126.906693, 
        "name": " 서울특별시 마포구 망원동 501 0 태청", 
        "rn": 3259, 
        "typef": "apt"
    }, 
    {
        "lat": 37.4794083, 
        "lng": 126.953583, 
        "name": " 서울특별시 관악구 봉천동 708 0 해태보라매타워", 
        "rn": 3689, 
        "typef": "apt"
    }, 
    {
        "lat": 37.4741707, 
        "lng": 127.095024, 
        "name": " 서울특별시 강남구 자곡동 611 0 래미안강남힐즈", 
        "rn": 6113, 
        "typef": "apt"
    }, 
    {
        "lat": 37.5546722, 
        "lng": 126.87262, 
        "name": " 서울특별시 강서구 염창동 293 0 한강동아", 
        "rn": 3324, 
        "typef": "apt"
    }, 
    {
        "lat": 37.5747261, 
        "lng": 126.951584, 
        "name": " 서울특별시 서대문구 현저동 1019 0 독립문파크빌", 
        "rn": 3564, 
        "typef": "apt"
    }, 
    {
        "lat": 37.519981, 
        "lng": 126.8365553, 
        "name": " 서울특별시 양천구 신월동 1001 5 보금자리", 
        "rn": 411, 
        "typef": "apt"
    }, 
    {
        "lat": 37.519981, 
        "lng": 126.8365553, 
        "name": " 서울특별시 양천구 신월동 538 4 연흥", 
        "rn": 698, 
        "typef": "apt"
    }, 
    {
        "lat": 37.632576, 
        "lng": 127.056931, 
        "name": " 서울특별시 노원구 월계동 946 0 우남푸르미아", 
        "rn": 1962, 
        "typef": "apt"
    }, 
    {
        "lat": 37.5390129, 
        "lng": 127.135178, 
        "name": " 서울특별시 강동구 천호동 564 0 성원", 
        "rn": 2469, 
        "typef": "apt"
    }, 
    {
        "lat": 37.5255966, 
        "lng": 127.020218, 
        "name": " 서울특별시 강남구 압구정동 414 0 미성1", 
        "rn": 6395, 
        "typef": "apt"
    }, 
    {
        "lat": 37.6132507, 
        "lng": 127.080093, 
        "name": " 서울특별시 중랑구 묵동 390 0 SM해그린", 
        "rn": 2101, 
        "typef": "apt"
    }, 
    {
        "lat": 37.5539322, 
        "lng": 127.097153, 
        "name": " 서울특별시 광진구 구의동 662 0 한라녹턴", 
        "rn": 4667, 
        "typef": "apt"
    }, 
    {
        "lat": 37.6452217, 
        "lng": 127.067902, 
        "name": " 서울특별시 노원구 중계동 161 1 중앙하이츠1", 
        "rn": 1863, 
        "typef": "apt"
    }, 
    {
        "lat": 37.6680527, 
        "lng": 127.081261, 
        "name": " 서울특별시 노원구 상계동 1293 0 불암현대", 
        "rn": 2582, 
        "typef": "apt"
    }, 
    {
        "lat": 37.528183, 
        "lng": 127.133179, 
        "name": " 서울특별시 강동구 성내동 424 12 동아2", 
        "rn": 2042, 
        "typef": "apt"
    }, 
    {
        "lat": 37.6202507, 
        "lng": 126.931717, 
        "name": " 서울특별시 은평구 불광동 217 9 삼익(217-9)", 
        "rn": 593, 
        "typef": "apt"
    }, 
    {
        "lat": 37.5324936, 
        "lng": 127.134102, 
        "name": " 서울특별시 강동구 성내동 386 82 비앤비(102동)", 
        "rn": 2136, 
        "typef": "apt"
    }, 
    {
        "lat": 37.4991302, 
        "lng": 126.952538, 
        "name": " 서울특별시 동작구 상도동 466 0 수정", 
        "rn": 2288, 
        "typef": "apt"
    }, 
    {
        "lat": 37.5103836, 
        "lng": 127.0243, 
        "name": " 서울특별시 강남구 논현동 122 25 세호시티라이프", 
        "rn": 5091, 
        "typef": "apt"
    }, 
    {
        "lat": 37.5185699, 
        "lng": 127.058769, 
        "name": " 서울특별시 강남구 삼성동 126 0 삼성파크", 
        "rn": 5748, 
        "typef": "apt"
    }, 
    {
        "lat": 37.6246834, 
        "lng": 127.037056, 
        "name": " 서울특별시 강북구 번동 148 496 완성", 
        "rn": 284, 
        "typef": "apt"
    }, 
    {
        "lat": 37.5778885, 
        "lng": 126.926277, 
        "name": " 서울특별시 서대문구 홍은동 413 38 (413-38)", 
        "rn": 1513, 
        "typef": "apt"
    }, 
    {
        "lat": 37.5370192, 
        "lng": 126.8735297, 
        "name": " 서울특별시 양천구 목동 758 2 목동2차아이파크", 
        "rn": 5255, 
        "typef": "apt"
    }, 
    {
        "lat": 37.5799408, 
        "lng": 127.033409, 
        "name": " 서울특별시 동대문구 제기동 1158 25 월드캐슬", 
        "rn": 1033, 
        "typef": "apt"
    }, 
    {
        "lat": 37.5964241, 
        "lng": 127.094612, 
        "name": " 서울특별시 중랑구 망우동 508 17 현대", 
        "rn": 1838, 
        "typef": "apt"
    }, 
    {
        "lat": 37.639473, 
        "lng": 127.038208, 
        "name": " 서울특별시 도봉구 창동 581 74 청하B동", 
        "rn": 372, 
        "typef": "apt"
    }, 
    {
        "lat": 37.4693298, 
        "lng": 126.905174, 
        "name": " 서울특별시 금천구 독산동 184 3 아셈그린힐", 
        "rn": 2153, 
        "typef": "apt"
    }, 
    {
        "lat": 37.5330696, 
        "lng": 127.122704, 
        "name": " 서울특별시 강동구 성내동 111 66 포레스(B동)", 
        "rn": 3010, 
        "typef": "apt"
    }, 
    {
        "lat": 37.495266, 
        "lng": 126.915398, 
        "name": " 서울특별시 동작구 신대방동 705 0 신대방", 
        "rn": 2966, 
        "typef": "apt"
    }, 
    {
        "lat": 37.5549316, 
        "lng": 126.898293, 
        "name": " 서울특별시 마포구 망원동 499 0 한강2차대주피오레", 
        "rn": 4539, 
        "typef": "apt"
    }, 
    {
        "lat": 37.5533714, 
        "lng": 127.152649, 
        "name": " 서울특별시 강동구 명일동 44 0 신동아", 
        "rn": 4817, 
        "typef": "apt"
    }, 
    {
        "lat": 37.5013237, 
        "lng": 127.051437, 
        "name": " 서울특별시 강남구 대치동 907 2 대치한신휴플러스", 
        "rn": 6054, 
        "typef": "apt"
    }, 
    {
        "lat": 37.4835739, 
        "lng": 127.039299, 
        "name": " 서울특별시 서초구 양재동 8 36 태양파크빌", 
        "rn": 4050, 
        "typef": "apt"
    }, 
    {
        "lat": 37.5325127, 
        "lng": 127.065987, 
        "name": " 서울특별시 광진구 자양동 87 1 한강우성", 
        "rn": 5022, 
        "typef": "apt"
    }, 
    {
        "lat": 37.5738678, 
        "lng": 127.014328, 
        "name": " 서울특별시 종로구 창신동 232 0 두산", 
        "rn": 4998, 
        "typef": "apt"
    }, 
    {
        "lat": 37.649807, 
        "lng": 127.058739, 
        "name": " 서울특별시 노원구 상계동 740 0 상계주공2(고층)", 
        "rn": 2788, 
        "typef": "apt"
    }, 
    {
        "lat": 37.4951134, 
        "lng": 126.88942, 
        "name": " 서울특별시 구로구 구로동 98 0 대림오페라타워", 
        "rn": 699, 
        "typef": "apt"
    }, 
    {
        "lat": 37.4979019, 
        "lng": 126.831184, 
        "name": " 서울특별시 구로구 궁동 182 4 다청림(101동)", 
        "rn": 2265, 
        "typef": "apt"
    }, 
    {
        "lat": 37.518486, 
        "lng": 127.103989, 
        "name": " 서울특별시 송파구 신천동 11 0 장미3", 
        "rn": 5723, 
        "typef": "apt"
    }, 
    {
        "lat": 37.5522842, 
        "lng": 126.844955, 
        "name": " 서울특별시 강서구 화곡동 1014 20 청솔", 
        "rn": 1987, 
        "typef": "apt"
    }, 
    {
        "lat": 37.4878044, 
        "lng": 127.015953, 
        "name": " 서울특별시 서초구 서초동 1625 7 티에스프리우스", 
        "rn": 4754, 
        "typef": "apt"
    }, 
    {
        "lat": 37.4811821, 
        "lng": 126.938644, 
        "name": " 서울특별시 관악구 봉천동 1531 39 무학", 
        "rn": 2515, 
        "typef": "apt"
    }, 
    {
        "lat": 37.556385, 
        "lng": 126.843689, 
        "name": " 서울특별시 강서구 내발산동 660 1 청솔해오름", 
        "rn": 3187, 
        "typef": "apt"
    }, 
    {
        "lat": 37.4888382, 
        "lng": 126.886551, 
        "name": " 서울특별시 구로구 구로동 740 5 청우아트빌라", 
        "rn": 653, 
        "typef": "apt"
    }, 
    {
        "lat": 37.6239166, 
        "lng": 127.04538, 
        "name": " 서울특별시 강북구 번동 118 15 성금수림채", 
        "rn": 812, 
        "typef": "apt"
    }, 
    {
        "lat": 37.5081253, 
        "lng": 126.883369, 
        "name": " 서울특별시 구로구 신도림동 649 0 대림e-편한세상7차", 
        "rn": 5330, 
        "typef": "apt"
    }, 
    {
        "lat": 37.5534515, 
        "lng": 127.129616, 
        "name": " 서울특별시 강동구 암사동 463 18 우암쎈스뷰", 
        "rn": 2858, 
        "typef": "apt"
    }, 
    {
        "lat": 37.5061798, 
        "lng": 126.924835, 
        "name": " 서울특별시 동작구 대방동 501 0 대림아파트", 
        "rn": 5160, 
        "typef": "apt"
    }, 
    {
        "lat": 37.5221252, 
        "lng": 127.0578, 
        "name": " 서울특별시 강남구 청담동 110 13 청담멤버스카운티10차", 
        "rn": 5956, 
        "typef": "apt"
    }, 
    {
        "lat": 37.5848709, 
        "lng": 126.9270773, 
        "name": "명지중학교", 
        "rn": 203, 
        "typef": "sch"
    }, 
    {
        "lat": 37.542984, 
        "lng": 127.095932, 
        "name": " 서울특별시 광진구 광장동 566 0 청구", 
        "rn": 5355, 
        "typef": "apt"
    }, 
    {
        "lat": 37.4955673, 
        "lng": 126.984009, 
        "name": " 서울특별시 서초구 방배동 763 12 푸른마을", 
        "rn": 4584, 
        "typef": "apt"
    }, 
    {
        "lat": 37.5270958, 
        "lng": 127.050766, 
        "name": " 서울특별시 강남구 청담동 110 4 청담대우멤버스카운티6차", 
        "rn": 5922, 
        "typef": "apt"
    }, 
    {
        "lat": 37.572567, 
        "lng": 126.927719, 
        "name": " 서울특별시 서대문구 연희동 105 4 은하", 
        "rn": 33, 
        "typef": "apt"
    }, 
    {
        "lat": 37.519981, 
        "lng": 126.8365553, 
        "name": " 서울특별시 양천구 신월동 81 7 신월동 해밀(102동)", 
        "rn": 1560, 
        "typef": "apt"
    }, 
    {
        "lat": 37.5837822, 
        "lng": 127.04641, 
        "name": " 서울특별시 동대문구 청량리동 235 1 미주", 
        "rn": 1678, 
        "typef": "apt"
    }, 
    {
        "lat": 37.6471558, 
        "lng": 127.011932, 
        "name": " 서울특별시 강북구 수유동 569 0 골드빌", 
        "rn": 403, 
        "typef": "apt"
    }, 
    {
        "lat": 37.5319023, 
        "lng": 127.121651, 
        "name": " 서울특별시 강동구 성내동 320 1 신주", 
        "rn": 2656, 
        "typef": "apt"
    }, 
    {
        "lat": 37.6268082, 
        "lng": 127.080872, 
        "name": " 서울특별시 노원구 공릉동 737 0 삼익아파트", 
        "rn": 1731, 
        "typef": "apt"
    }, 
    {
        "lat": 37.5723076, 
        "lng": 126.813622, 
        "name": " 서울특별시 강서구 방화동 857 0 방화삼성", 
        "rn": 1948, 
        "typef": "apt"
    }, 
    {
        "lat": 37.6002083, 
        "lng": 126.916451, 
        "name": " 서울특별시 은평구 역촌동 44 6 거성리젠시2차", 
        "rn": 3598, 
        "typef": "apt"
    }, 
    {
        "lat": 37.6638565, 
        "lng": 127.045654, 
        "name": " 서울특별시 도봉구 방학동 713 12 우암쎈스뷰", 
        "rn": 1461, 
        "typef": "apt"
    }, 
    {
        "lat": 37.4961548, 
        "lng": 126.922585, 
        "name": " 서울특별시 동작구 신대방동 364 55 펭귄", 
        "rn": 3302, 
        "typef": "apt"
    }, 
    {
        "lat": 37.4950676, 
        "lng": 126.831688, 
        "name": " 서울특별시 구로구 궁동 211 1 선우쉐르빌", 
        "rn": 325, 
        "typef": "apt"
    }, 
    {
        "lat": 37.6226158, 
        "lng": 127.059135, 
        "name": " 서울특별시 노원구 월계동 387 0 월계로즈빌(387)", 
        "rn": 795, 
        "typef": "apt"
    }, 
    {
        "lat": 37.5447083, 
        "lng": 127.103348, 
        "name": " 서울특별시 광진구 광장동 580 0 현대홈타운12차", 
        "rn": 5885, 
        "typef": "apt"
    },