[
    {
        "lat": 37.2762027, 
        "lng": 126.9353472, 
        "name": "상촌중학교", 
        "rn": 654, 
        "typef": "sch"
    }, 
    {
        "lat": 36.98716020000001, 
        "lng": 126.9216487, 
        "name": " 경기도 평택시 안중읍 현화리 305 2 동환", 
        "rn": 760, 
        "typef": "apt"
    }, 
    {
        "lat": 37.6019374, 
        "lng": 127.1482029, 
        "name": " 경기도 구리시 수택동 555 0 원일(555)", 
        "rn": 2637, 
        "typef": "apt"
    }, 
    {
        "lat": 37.5003271, 
        "lng": 126.7498232, 
        "name": " 경기도 부천시 원미구 상동 525 1 라일락마을(경남아너스빌)", 
        "rn": 4787, 
        "typef": "apt"
    }, 
    {
        "lat": 37.007052, 
        "lng": 127.1032217, 
        "name": "비전중학교", 
        "rn": 359, 
        "typef": "sch"
    }, 
    {
        "lat": 36.9898163, 
        "lng": 127.0905773, 
        "name": " 경기도 평택시 합정동 829 0 주공4", 
        "rn": 746, 
        "typef": "apt"
    }, 
    {
        "lat": 37.2790156, 
        "lng": 127.4372548, 
        "name": " 경기도 이천시 관고동 26 5 대원새설봉", 
        "rn": 2482, 
        "typef": "apt"
    }, 
    {
        "lat": 37.2524485, 
        "lng": 127.0709721, 
        "name": " 경기도 수원시 영통구 영통동 966 2 신나무실건영", 
        "rn": 4792, 
        "typef": "apt"
    }, 
    {
        "lat": 37.0696419, 
        "lng": 127.0652298, 
        "name": "송탄제일중학교", 
        "rn": 2344, 
        "typef": "sch"
    }, 
    {
        "lat": 37.4831321, 
        "lng": 126.8019259, 
        "name": " 경기도 부천시 원미구 역곡동 25 32 한도(7-8동)", 
        "rn": 940, 
        "typef": "apt"
    }, 
    {
        "lat": 37.3907138, 
        "lng": 126.9317411, 
        "name": " 경기도 안양시 만안구 안양동 436 1 삼익", 
        "rn": 1753, 
        "typef": "apt"
    }, 
    {
        "lat": 37.4425632, 
        "lng": 127.1596085, 
        "name": " 경기도 성남시 중원구 금광동 91 0 브이아이피산성", 
        "rn": 1971, 
        "typef": "apt"
    }, 
    {
        "lat": 37.3326254, 
        "lng": 126.8640701, 
        "name": " 경기도 안산시 상록구 부곡동 539 4 대원해피타워", 
        "rn": 3094, 
        "typef": "apt"
    }, 
    {
        "lat": 37.2068352, 
        "lng": 127.0435582, 
        "name": " 경기도 화성시 병점동 860 0 구봉마을우남퍼스트빌", 
        "rn": 4024, 
        "typef": "apt"
    }, 
    {
        "lat": 37.3492129, 
        "lng": 126.9392629, 
        "name": " 경기도 군포시 당동 954 0 무지개마을대림", 
        "rn": 4442, 
        "typef": "apt"
    }, 
    {
        "lat": 37.2422362, 
        "lng": 127.0523825, 
        "name": " 경기도 수원시 영통구 망포동 291 0 청와", 
        "rn": 1363, 
        "typef": "apt"
    }, 
    {
        "lat": 37.6480638, 
        "lng": 126.685072, 
        "name": " 경기도 김포시 장기동 545 5 전원마을(월드4차2단지)", 
        "rn": 1145, 
        "typef": "apt"
    }, 
    {
        "lat": 37.5175584, 
        "lng": 126.7915388, 
        "name": " 경기도 부천시 원미구 도당동 92 0 주영홈타운101동", 
        "rn": 3612, 
        "typef": "apt"
    }, 
    {
        "lat": 37.6662792, 
        "lng": 127.1133146, 
        "name": " 경기도 남양주시 별내동 922 0 포스코더샵", 
        "rn": 2553, 
        "typef": "apt"
    }, 
    {
        "lat": 37.4857629, 
        "lng": 126.7627341, 
        "name": " 경기도 부천시 소사구 송내동 368 0 뉴서울", 
        "rn": 3089, 
        "typef": "apt"
    }, 
    {
        "lat": 37.2342764, 
        "lng": 126.9552229, 
        "name": " 경기도 화성시 봉담읍 수영리 647 5 수정마을동남메리트", 
        "rn": 2275, 
        "typef": "apt"
    }, 
    {
        "lat": 37.3781102, 
        "lng": 126.9530635, 
        "name": " 경기도 안양시 동안구 호계동 767 2 서부인터빌", 
        "rn": 4722, 
        "typef": "apt"
    }, 
    {
        "lat": 37.8263051, 
        "lng": 127.1398679, 
        "name": " 경기도 포천시 소흘읍 송우리 430 13 원일산호3", 
        "rn": 628, 
        "typef": "apt"
    }, 
    {
        "lat": 36.9983869, 
        "lng": 127.1087476, 
        "name": " 경기도 평택시 비전동 828 1 태산신그린", 
        "rn": 3392, 
        "typef": "apt"
    }, 
    {
        "lat": 37.5362821, 
        "lng": 127.2047224, 
        "name": " 경기도 하남시 덕풍동 695 0 벽산블루밍", 
        "rn": 4674, 
        "typef": "apt"
    }, 
    {
        "lat": 37.312832, 
        "lng": 127.0925502, 
        "name": " 경기도 용인시 수지구 상현동 30 0 송화마을성원상떼빌2차", 
        "rn": 4176, 
        "typef": "apt"
    }, 
    {
        "lat": 37.35101179999999, 
        "lng": 126.9552096, 
        "name": " 경기도 군포시 당정동 1023 1 대원칸타빌(1023-1)", 
        "rn": 4547, 
        "typef": "apt"
    }, 
    {
        "lat": 37.3730359, 
        "lng": 126.9549304, 
        "name": " 경기도 안양시 동안구 호계동 953 3 성심", 
        "rn": 3527, 
        "typef": "apt"
    }, 
    {
        "lat": 37.2696085, 
        "lng": 127.0437513, 
        "name": " 경기도 수원시 영통구 매탄동 810 3 삼성1", 
        "rn": 3838, 
        "typef": "apt"
    }, 
    {
        "lat": 37.090295, 
        "lng": 127.4719446, 
        "name": " 경기도 안성시 일죽면 송천리 610 0 일죽아이시타운", 
        "rn": 444, 
        "typef": "apt"
    }, 
    {
        "lat": 37.7262311, 
        "lng": 127.1785622, 
        "name": " 경기도 남양주시 진접읍 장현리 71 1 원일에이플러스", 
        "rn": 777, 
        "typef": "apt"
    }, 
    {
        "lat": 37.6237158, 
        "lng": 126.8165424, 
        "name": " 경기도 고양시 덕양구 토당동 99 2 장미APT", 
        "rn": 933, 
        "typef": "apt"
    }, 
    {
        "lat": 37.2912857, 
        "lng": 126.8544695, 
        "name": " 경기도 안산시 상록구 사동 1343 0 현대2", 
        "rn": 3512, 
        "typef": "apt"
    }, 
    {
        "lat": 37.7843627, 
        "lng": 126.9739732, 
        "name": " 경기도 양주시 백석읍 가업리 99 1 세아청솔3차", 
        "rn": 393, 
        "typef": "apt"
    }, 
    {
        "lat": 37.3580156, 
        "lng": 126.9370767, 
        "name": " 경기도 군포시 금정동 849 1 무궁화", 
        "rn": 4195, 
        "typef": "apt"
    }, 
    {
        "lat": 37.8884208, 
        "lng": 127.0525127, 
        "name": " 경기도 동두천시 송내동 665 3 주공4단지", 
        "rn": 1399, 
        "typef": "apt"
    }, 
    {
        "lat": 37.4951255, 
        "lng": 126.7924726, 
        "name": " 경기도 부천시 원미구 원미동 90 4 영진그랜드", 
        "rn": 3339, 
        "typef": "apt"
    }, 
    {
        "lat": 37.327216, 
        "lng": 126.8394364, 
        "name": " 경기도 안산시 단원구 고잔동 670 0 주공7", 
        "rn": 3629, 
        "typef": "apt"
    }, 
    {
        "lat": 37.2823247, 
        "lng": 127.4821267, 
        "name": " 경기도 이천시 부발읍 마암리 1 1 현광", 
        "rn": 687, 
        "typef": "apt"
    }, 
    {
        "lat": 36.9972792, 
        "lng": 127.1026, 
        "name": " 경기도 평택시 비전동 236 22 동아목련", 
        "rn": 1886, 
        "typef": "apt"
    }, 
    {
        "lat": 37.6903153, 
        "lng": 126.7643921, 
        "name": " 경기도 고양시 일산서구 탄현동 1579 0 탄현마을서광", 
        "rn": 2892, 
        "typef": "apt"
    }, 
    {
        "lat": 37.3890129, 
        "lng": 126.963351, 
        "name": " 경기도 안양시 동안구 평촌동 898 6 초원마을대원", 
        "rn": 5557, 
        "typef": "apt"
    }, 
    {
        "lat": 37.3907484, 
        "lng": 126.9134776, 
        "name": " 경기도 안양시 만안구 안양동 734 1 청호", 
        "rn": 2840, 
        "typef": "apt"
    }, 
    {
        "lat": 37.2448395, 
        "lng": 127.2264606, 
        "name": " 경기도 용인시 처인구 고림동 264 8 인정빌리지1", 
        "rn": 755, 
        "typef": "apt"
    }, 
    {
        "lat": 37.6660875, 
        "lng": 127.3057328, 
        "name": " 경기도 남양주시 화도읍 묵현리 47 3 마석LIG아파트", 
        "rn": 1396, 
        "typef": "apt"
    }, 
    {
        "lat": 37.34860159999999, 
        "lng": 126.7271088, 
        "name": " 경기도 시흥시 정왕동 1785 1 건영1", 
        "rn": 1678, 
        "typef": "apt"
    }, 
    {
        "lat": 37.3950431, 
        "lng": 126.9648322, 
        "name": " 경기도 안양시 동안구 평촌동 897 5 초원한양", 
        "rn": 5466, 
        "typef": "apt"
    }, 
    {
        "lat": 37.3861507, 
        "lng": 126.933319, 
        "name": " 경기도 안양시 만안구 안양동 533 16 미랜드명학타워", 
        "rn": 3902, 
        "typef": "apt"
    }, 
    {
        "lat": 37.0107977, 
        "lng": 127.1783928, 
        "name": " 경기도 안성시 공도읍 만정리 786 1 금호어울림3단지", 
        "rn": 3566, 
        "typef": "apt"
    }, 
    {
        "lat": 37.2447039, 
        "lng": 126.9813283, 
        "name": " 경기도 수원시 권선구 고색동 368 1 대한", 
        "rn": 2182, 
        "typef": "apt"
    }, 
    {
        "lat": 37.72340459999999, 
        "lng": 127.0487417, 
        "name": " 경기도 의정부시 호원동 430 0 우성3", 
        "rn": 2764, 
        "typef": "apt"
    }, 
    {
        "lat": 37.1409837, 
        "lng": 127.0796619, 
        "name": " 경기도 오산시 원동 552 4 한주", 
        "rn": 1123, 
        "typef": "apt"
    }, 
    {
        "lat": 37.3243278, 
        "lng": 127.081438, 
        "name": " 경기도 용인시 수지구 신봉동 874 0 한일드림빌", 
        "rn": 4976, 
        "typef": "apt"
    }, 
    {
        "lat": 37.35101179999999, 
        "lng": 126.9552096, 
        "name": " 경기도 군포시 당정동 1012 3 대원칸타빌(1012-3)", 
        "rn": 5033, 
        "typef": "apt"
    }, 
    {
        "lat": 37.2714577, 
        "lng": 127.0281553, 
        "name": " 경기도 수원시 팔달구 인계동 261 1 장안", 
        "rn": 2900, 
        "typef": "apt"
    }, 
    {
        "lat": 37.260096, 
        "lng": 127.5008423, 
        "name": " 경기도 이천시 부발읍 아미리 728 1 신일해피트리앤", 
        "rn": 1135, 
        "typef": "apt"
    }, 
    {
        "lat": 37.3176232, 
        "lng": 127.0964572, 
        "name": " 경기도 용인시 수지구 풍덕천동 1168 2 진산마을삼성6", 
        "rn": 3874, 
        "typef": "apt"
    }, 
    {
        "lat": 37.2271515, 
        "lng": 127.1082689, 
        "name": " 경기도 용인시 기흥구 고매동 409 31 에이스리오빌리지", 
        "rn": 1520, 
        "typef": "apt"
    }, 
    {
        "lat": 37.2465927, 
        "lng": 126.9630025, 
        "name": " 경기도 수원시 권선구 오목천동 323 2 태산", 
        "rn": 1604, 
        "typef": "apt"
    }, 
    {
        "lat": 37.2819187, 
        "lng": 127.4483152, 
        "name": " 경기도 이천시 창전동 456 0 대호2", 
        "rn": 1103, 
        "typef": "apt"
    }, 
    {
        "lat": 37.3765204, 
        "lng": 126.9538185, 
        "name": " 경기도 안양시 동안구 호계동 940 0 HHI브라운빌3차", 
        "rn": 4989, 
        "typef": "apt"
    }, 
    {
        "lat": 37.34860159999999, 
        "lng": 126.7271088, 
        "name": " 경기도 시흥시 정왕동 1787 1 주공6", 
        "rn": 2600, 
        "typef": "apt"
    }, 
    {
        "lat": 37.4084009, 
        "lng": 126.948351, 
        "name": " 경기도 안양시 동안구 비산동 1015 0 영화", 
        "rn": 3297, 
        "typef": "apt"
    }, 
    {
        "lat": 38.0154359, 
        "lng": 127.0664167, 
        "name": " 경기도 연천군 전곡읍 전곡리 330 13 세원2동", 
        "rn": 267, 
        "typef": "apt"
    }, 
    {
        "lat": 37.1298019, 
        "lng": 127.0682186, 
        "name": " 경기도 오산시 갈곶동 218 0 태양", 
        "rn": 1541, 
        "typef": "apt"
    }, 
    {
        "lat": 37.41589580000001, 
        "lng": 127.2534095, 
        "name": " 경기도 광주시 경안동 108 46 나산", 
        "rn": 2390, 
        "typef": "apt"
    }, 
    {
        "lat": 37.6146576, 
        "lng": 127.1325968, 
        "name": " 경기도 구리시 인창동 714 0 더샵그린포레2단지", 
        "rn": 5271, 
        "typef": "apt"
    }, 
    {
        "lat": 37.3042402, 
        "lng": 127.047337, 
        "name": " 경기도 수원시 영통구 이의동 1252 0 광교캠퍼스타운참누리", 
        "rn": 5174, 
        "typef": "apt"
    }, 
    {
        "lat": 37.6797364, 
        "lng": 126.7660062, 
        "name": " 경기도 고양시 일산서구 일산동 1066 0 후곡마을(한양)", 
        "rn": 4182, 
        "typef": "apt"
    }, 
    {
        "lat": 37.702816, 
        "lng": 126.9026708, 
        "name": " 경기도 고양시 덕양구 고양동 197 0 삼성", 
        "rn": 1768, 
        "typef": "apt"
    }, 
    {
        "lat": 37.6265171, 
        "lng": 126.8164463, 
        "name": " 경기도 고양시 덕양구 토당동 259 0 대림2", 
        "rn": 3312, 
        "typef": "apt"
    }, 
    {
        "lat": 37.48417380000001, 
        "lng": 126.8011291, 
        "name": " 경기도 부천시 원미구 역곡동 21 3 장미", 
        "rn": 1706, 
        "typef": "apt"
    }, 
    {
        "lat": 37.2826255, 
        "lng": 127.4460971, 
        "name": " 경기도 이천시 창전동 48 6 조명", 
        "rn": 2121, 
        "typef": "apt"
    }, 
    {
        "lat": 37.371152, 
        "lng": 127.1107649, 
        "name": "백현중학교", 
        "rn": 138, 
        "typef": "sch"
    }, 
    {
        "lat": 37.4854252, 
        "lng": 126.7585505, 
        "name": " 경기도 부천시 소사구 송내동 335 13 진주", 
        "rn": 714, 
        "typef": "apt"
    }, 
    {
        "lat": 37.2242526, 
        "lng": 126.9755896, 
        "name": "기안중학교", 
        "rn": 1805, 
        "typef": "sch"
    }, 
    {
        "lat": 37.7129836, 
        "lng": 127.0331721, 
        "name": " 경기도 의정부시 호원동 322 5 호원가든2", 
        "rn": 2817, 
        "typef": "apt"
    }, 
    {
        "lat": 37.3338596, 
        "lng": 127.0890372, 
        "name": " 경기도 용인시 수지구 동천동 932 0 래미안 이스트팰리스3단지", 
        "rn": 5462, 
        "typef": "apt"
    }, 
    {
        "lat": 37.6771657, 
        "lng": 126.749064, 
        "name": " 경기도 고양시 일산서구 대화동 2209 0 세경", 
        "rn": 3270, 
        "typef": "apt"
    }, 
    {
        "lat": 37.600585, 
        "lng": 126.766735, 
        "name": " 경기도 김포시 고촌읍 신곡리 1248 0 수기마을힐스테이트3단지", 
        "rn": 2936, 
        "typef": "apt"
    }, 
    {
        "lat": 37.6309566, 
        "lng": 126.8284663, 
        "name": " 경기도 고양시 덕양구 화정동 951 0 별빛마을(건영)10", 
        "rn": 4173, 
        "typef": "apt"
    }, 
    {
        "lat": 37.3517512, 
        "lng": 126.9735909, 
        "name": " 경기도 의왕시 오전동 349 2 현지", 
        "rn": 4424, 
        "typef": "apt"
    }, 
    {
        "lat": 37.35101179999999, 
        "lng": 126.9552096, 
        "name": " 경기도 군포시 당정동 981 1 당정마을누리에뜰(102동)", 
        "rn": 2560, 
        "typef": "apt"
    }, 
    {
        "lat": 37.2008252, 
        "lng": 127.0684683, 
        "name": " 경기도 화성시 반송동 100 0 시범다은마을삼성래미안", 
        "rn": 5138, 
        "typef": "apt"
    }, 
    {
        "lat": 37.691386, 
        "lng": 126.7646862, 
        "name": " 경기도 고양시 일산서구 탄현동 1578 0 탄현마을동신", 
        "rn": 2955, 
        "typef": "apt"
    }, 
    {
        "lat": 37.3727353, 
        "lng": 126.9388832, 
        "name": " 경기도 군포시 산본동 83 28 금환", 
        "rn": 2407, 
        "typef": "apt"
    }, 
    {
        "lat": 37.7140959, 
        "lng": 126.9058889, 
        "name": "목암중학교", 
        "rn": 1864, 
        "typef": "sch"
    }, 
    {
        "lat": 37.0813975, 
        "lng": 127.0633633, 
        "name": " 경기도 평택시 독곡동 475 0 동부", 
        "rn": 516, 
        "typef": "apt"
    }, 
    {
        "lat": 37.2609068, 
        "lng": 127.0392019, 
        "name": "매탄중학교", 
        "rn": 671, 
        "typef": "sch"
    }, 
    {
        "lat": 37.2101121, 
        "lng": 127.0400627, 
        "name": "병점중학교", 
        "rn": 1291, 
        "typef": "sch"
    }, 
    {
        "lat": 37.5260305, 
        "lng": 126.7991099, 
        "name": " 경기도 부천시 오정구 원종동 139 1 유호나동", 
        "rn": 338, 
        "typef": "apt"
    }, 
    {
        "lat": 37.2754512, 
        "lng": 126.9524957, 
        "name": " 경기도 수원시 권선구 금곡동 1076 0 가온마을3단지", 
        "rn": 3983, 
        "typef": "apt"
    }, 
    {
        "lat": 37.409329, 
        "lng": 126.8968305, 
        "name": "안양중학교", 
        "rn": 2075, 
        "typef": "sch"
    }, 
    {
        "lat": 37.5258102, 
        "lng": 126.8226901, 
        "name": " 경기도 부천시 오정구 고강동 407 6 선우", 
        "rn": 1637, 
        "typef": "apt"
    }, 
    {
        "lat": 37.2930971, 
        "lng": 127.0140844, 
        "name": " 경기도 수원시 장안구 영화동 101 7 벽산", 
        "rn": 2717, 
        "typef": "apt"
    }, 
    {
        "lat": 37.3594144, 
        "lng": 126.9207863, 
        "name": " 경기도 군포시 산본동 106 4 임광그대가", 
        "rn": 4899, 
        "typef": "apt"
    }, 
    {
        "lat": 37.4521764, 
        "lng": 127.1566675, 
        "name": " 경기도 성남시 수정구 단대동 78 0 진흥더블파크", 
        "rn": 5052, 
        "typef": "apt"
    }, 
    {
        "lat": 37.6699498, 
        "lng": 126.756155, 
        "name": "한수중학교", 
        "rn": 701, 
        "typef": "sch"
    }, 
    {
        "lat": 37.3930981, 
        "lng": 126.9815855, 
        "name": " 경기도 의왕시 포일동 523 0 인덕원대우푸른마을(2차)", 
        "rn": 5286, 
        "typef": "apt"
    }, 
    {
        "lat": 37.4662047, 
        "lng": 126.7997375, 
        "name": "부일중학교", 
        "rn": 2222, 
        "typef": "sch"
    }, 
    {
        "lat": 37.757664, 
        "lng": 126.7705264, 
        "name": " 경기도 파주시 금촌동 951 5 장안하나(951-5)", 
        "rn": 1790, 
        "typef": "apt"
    }, 
    {
        "lat": 37.8884208, 
        "lng": 127.0525127, 
        "name": "송내중앙중학교", 
        "rn": 2355, 
        "typef": "sch"
    }, 
    {
        "lat": 37.0814357, 
        "lng": 127.0500387, 
        "name": " 경기도 평택시 신장동 247 5 동영 센트럴타워", 
        "rn": 1519, 
        "typef": "apt"
    }, 
    {
        "lat": 37.6243291, 
        "lng": 126.8199156, 
        "name": " 경기도 고양시 덕양구 토당동 292 37 에이스빌", 
        "rn": 4513, 
        "typef": "apt"
    }, 
    {
        "lat": 37.40419929999999, 
        "lng": 127.1267921, 
        "name": " 경기도 성남시 분당구 이매동 99 0 이매촌(삼환)", 
        "rn": 5564, 
        "typef": "apt"
    }, 
    {
        "lat": 37.7405301, 
        "lng": 127.0581542, 
        "name": " 경기도 의정부시 신곡동 687 0 삼부", 
        "rn": 1589, 
        "typef": "apt"
    }, 
    {
        "lat": 37.2930971, 
        "lng": 127.0140844, 
        "name": " 경기도 수원시 장안구 영화동 405 3 수정", 
        "rn": 1614, 
        "typef": "apt"
    }, 
    {
        "lat": 37.7310618, 
        "lng": 127.0803266, 
        "name": " 경기도 의정부시 용현동 222 4 동문(222-4)", 
        "rn": 751, 
        "typef": "apt"
    }, 
    {
        "lat": 37.5418468, 
        "lng": 127.2179019, 
        "name": " 경기도 하남시 신장동 527 0 하남비둘기한국", 
        "rn": 5186, 
        "typef": "apt"
    }, 
    {
        "lat": 37.7590908, 
        "lng": 127.0784139, 
        "name": " 경기도 의정부시 금오동 65 3 평화", 
        "rn": 146, 
        "typef": "apt"
    }, 
    {
        "lat": 37.3487673, 
        "lng": 126.9587839, 
        "name": "당정중학교", 
        "rn": 417, 
        "typef": "sch"
    }, 
    {
        "lat": 37.2156211, 
        "lng": 126.7307428, 
        "name": "송산중학교", 
        "rn": 2022, 
        "typef": "sch"
    }, 
    {
        "lat": 37.394805, 
        "lng": 126.9229373, 
        "name": " 경기도 안양시 만안구 안양동 627 72 벽산", 
        "rn": 3235, 
        "typef": "apt"
    }, 
    {
        "lat": 37.3691523, 
        "lng": 127.1242574, 
        "name": " 경기도 성남시 분당구 수내동 75 0 푸른마을(쌍용)", 
        "rn": 5586, 
        "typef": "apt"
    }, 
    {
        "lat": 37.5916506, 
        "lng": 127.2159169, 
        "name": " 경기도 남양주시 와부읍 덕소리 554 1 현대", 
        "rn": 3275, 
        "typef": "apt"
    }, 
    {
        "lat": 37.6951732, 
        "lng": 126.7532274, 
        "name": "덕이중학교", 
        "rn": 845, 
        "typef": "sch"
    }, 
    {
        "lat": 37.6808588, 
        "lng": 127.4928342, 
        "name": "설악중학교", 
        "rn": 1862, 
        "typef": "sch"
    }, 
    {
        "lat": 37.4340155, 
        "lng": 127.1254288, 
        "name": " 경기도 성남시 수정구 수진동 4763 1 모란수정빌", 
        "rn": 5155, 
        "typef": "apt"
    }, 
    {
        "lat": 37.1409837, 
        "lng": 127.0796619, 
        "name": " 경기도 오산시 원동 826 1 대우푸르지오", 
        "rn": 2921, 
        "typef": "apt"
    }, 
    {
        "lat": 37.656925, 
        "lng": 127.1429636, 
        "name": " 경기도 남양주시 퇴계원면 퇴계원리 56 0 월드", 
        "rn": 111, 
        "typef": "apt"
    }, 
    {
        "lat": 37.6452324, 
        "lng": 126.6881802, 
        "name": " 경기도 김포시 장기동 613 0 전원마을(월드5차3단지)", 
        "rn": 856, 
        "typef": "apt"
    }, 
    {
        "lat": 37.29049330000001, 
        "lng": 127.4528758, 
        "name": " 경기도 이천시 증포동 190 2 선경2", 
        "rn": 1758, 
        "typef": "apt"
    }, 
    {
        "lat": 37.4284225, 
        "lng": 127.149122, 
        "name": " 경기도 성남시 중원구 하대원동 155 2 대원", 
        "rn": 2606, 
        "typef": "apt"
    }, 
    {
        "lat": 37.2481265, 
        "lng": 127.0353053, 
        "name": " 경기도 수원시 권선구 권선동 1314 0 권선3지구주공", 
        "rn": 4433, 
        "typef": "apt"
    }, 
    {
        "lat": 37.5962281, 
        "lng": 127.1453311, 
        "name": " 경기도 구리시 수택동 629 2 리라", 
        "rn": 1727, 
        "typef": "apt"
    }, 
    {
        "lat": 37.2606735, 
        "lng": 127.032903, 
        "name": " 경기도 수원시 팔달구 인계동 1125 2 벽산그랜드코아", 
        "rn": 2314, 
        "typef": "apt"
    }, 
    {
        "lat": 37.4425168, 
        "lng": 127.1507276, 
        "name": " 경기도 성남시 수정구 신흥동 2476 0 삼부르네상스파크2", 
        "rn": 5124, 
        "typef": "apt"
    }, 
    {
        "lat": 37.363305, 
        "lng": 126.7324994, 
        "name": " 경기도 시흥시 정왕동 1877 2 세종2", 
        "rn": 2305, 
        "typef": "apt"
    }, 
    {
        "lat": 37.7101699, 
        "lng": 127.114013, 
        "name": " 경기도 남양주시 별내면 청학리 420 0 청학주공(1단지)", 
        "rn": 1883, 
        "typef": "apt"
    }, 
    {
        "lat": 37.3299865, 
        "lng": 126.8014488, 
        "name": " 경기도 안산시 단원구 원곡동 937 0 안산8차푸르지오", 
        "rn": 3833, 
        "typef": "apt"
    }, 
    {
        "lat": 37.3538067, 
        "lng": 126.9363787, 
        "name": " 경기도 군포시 금정동 871 11 다산주공(3단지)", 
        "rn": 5039, 
        "typef": "apt"
    }, 
    {
        "lat": 37.1389319, 
        "lng": 127.0756996, 
        "name": " 경기도 오산시 원동 825 0 KS건영아느칸빌", 
        "rn": 2901, 
        "typef": "apt"
    }, 
    {
        "lat": 37.2815132, 
        "lng": 127.4471476, 
        "name": " 경기도 이천시 창전동 457 19 (457-19)", 
        "rn": 3490, 
        "typef": "apt"
    }, 
    {
        "lat": 37.4158037, 
        "lng": 127.1351786, 
        "name": " 경기도 성남시 분당구 야탑동 201 0 매화마을공무원1", 
        "rn": 5369, 
        "typef": "apt"
    }, 
    {
        "lat": 37.6561934, 
        "lng": 126.6744322, 
        "name": " 경기도 김포시 운양동 999 2 성창", 
        "rn": 245, 
        "typef": "apt"
    }, 
    {
        "lat": 37.6723283, 
        "lng": 126.7461844, 
        "name": " 경기도 고양시 일산서구 대화동 2234 0 장성마을(3)", 
        "rn": 3124, 
        "typef": "apt"
    }, 
    {
        "lat": 37.3235137, 
        "lng": 126.9388852, 
        "name": "부곡중앙중학교", 
        "rn": 1218, 
        "typef": "sch"
    }, 
    {
        "lat": 37.5119084, 
        "lng": 126.7628569, 
        "name": "중원중학교", 
        "rn": 1630, 
        "typef": "sch"
    }, 
    {
        "lat": 37.7172235, 
        "lng": 127.181754, 
        "name": " 경기도 남양주시 진접읍 장현리 637 0 대명", 
        "rn": 1153, 
        "typef": "apt"
    }, 
    {
        "lat": 37.7511952, 
        "lng": 127.0405789, 
        "name": " 경기도 의정부시 가능동 632 14 동성", 
        "rn": 2123, 
        "typef": "apt"
    }, 
    {
        "lat": 37.2404898, 
        "lng": 127.4894144, 
        "name": " 경기도 이천시 대월면 사동리 386 72 현대5", 
        "rn": 2389, 
        "typef": "apt"
    }, 
    {
        "lat": 37.74050099999999, 
        "lng": 127.0607143, 
        "name": " 경기도 의정부시 신곡동 482 0 신성2", 
        "rn": 917, 
        "typef": "apt"
    }, 
    {
        "lat": 37.2048716, 
        "lng": 127.0385361, 
        "name": " 경기도 화성시 병점동 870 0 에스케이뷰", 
        "rn": 3441, 
        "typef": "apt"
    }, 
    {
        "lat": 37.6079612, 
        "lng": 127.1305802, 
        "name": " 경기도 구리시 인창동 641 7 부영101동", 
        "rn": 4626, 
        "typef": "apt"
    }, 
    {
        "lat": 37.290158, 
        "lng": 126.8540513, 
        "name": " 경기도 안산시 상록구 사동 1344 1 신우", 
        "rn": 3309, 
        "typef": "apt"
    }, 
    {
        "lat": 37.3781102, 
        "lng": 126.9530635, 
        "name": " 경기도 안양시 동안구 호계동 651 1 삼신6차", 
        "rn": 104, 
        "typef": "apt"
    }, 
    {
        "lat": 37.3603888, 
        "lng": 127.1059372, 
        "name": "늘푸른중학교", 
        "rn": 81, 
        "typef": "sch"
    }, 
    {
        "lat": 37.3937371, 
        "lng": 127.0722627, 
        "name": " 경기도 성남시 분당구 운중동 989 0 산운마을5단지(한성필하우스)", 
        "rn": 5629, 
        "typef": "apt"
    }, 
    {
        "lat": 37.3612124, 
        "lng": 126.9184789, 
        "name": "수리중학교", 
        "rn": 207, 
        "typef": "sch"
    }, 
    {
        "lat": 37.0099345, 
        "lng": 127.2784619, 
        "name": " 경기도 안성시 봉산동 42 0 한주", 
        "rn": 943, 
        "typef": "apt"
    }, 
    {
        "lat": 37.2686108, 
        "lng": 127.096387, 
        "name": " 경기도 용인시 기흥구 영덕동 13 0 두진", 
        "rn": 2416, 
        "typef": "apt"
    }, 
    {
        "lat": 37.9065024, 
        "lng": 127.0603285, 
        "name": "동두천여자중학교", 
        "rn": 2038, 
        "typef": "sch"
    }, 
    {
        "lat": 37.2512242, 
        "lng": 127.0286546, 
        "name": " 경기도 수원시 권선구 권선동 1263 0 신우", 
        "rn": 4034, 
        "typef": "apt"
    }, 
    {
        "lat": 36.9212705, 
        "lng": 126.9162381, 
        "name": " 경기도 평택시 현덕면 권관리 576 1 우경", 
        "rn": 137, 
        "typef": "apt"
    }, 
    {
        "lat": 37.2067187, 
        "lng": 127.0203638, 
        "name": " 경기도 화성시 송산동 97 129 신현대1차", 
        "rn": 452, 
        "typef": "apt"
    }, 
    {
        "lat": 37.4363807, 
        "lng": 126.7980184, 
        "name": " 경기도 시흥시 은행동 538 2 시흥성원샹떼빌", 
        "rn": 2425, 
        "typef": "apt"
    }, 
    {
        "lat": 36.9972792, 
        "lng": 127.1026, 
        "name": " 경기도 평택시 비전동 1089 0 소사벌 효성 백년가약", 
        "rn": 4067, 
        "typef": "apt"
    }, 
    {
        "lat": 37.60821140000001, 
        "lng": 127.1517743, 
        "name": " 경기도 남양주시 도농동 27 5 제일", 
        "rn": 2246, 
        "typef": "apt"
    }, 
    {
        "lat": 37.5197056, 
        "lng": 126.8073278, 
        "name": " 경기도 부천시 오정구 원종동 361 6 삼신아파트-1", 
        "rn": 915, 
        "typef": "apt"
    }, 
    {
        "lat": 37.4949738, 
        "lng": 126.749781, 
        "name": " 경기도 부천시 원미구 상동 392 0 한아름마을(현대)", 
        "rn": 5040, 
        "typef": "apt"
    }, 
    {
        "lat": 37.2797753, 
        "lng": 127.2211641, 
        "name": "포곡중학교", 
        "rn": 2189, 
        "typef": "sch"
    }, 
    {
        "lat": 37.0674817, 
        "lng": 127.4269562, 
        "name": " 경기도 안성시 죽산면 장원리 1379 1 지에프", 
        "rn": 421, 
        "typef": "apt"
    }, 
    {
        "lat": 37.3045541, 
        "lng": 126.9675877, 
        "name": " 경기도 수원시 장안구 율전동 562 0 성균관대역 서희스타힐스 2단지", 
        "rn": 4165, 
        "typef": "apt"
    }, 
    {
        "lat": 37.3856143, 
        "lng": 126.8614892, 
        "name": " 경기도 시흥시 목감동 239 15 동우", 
        "rn": 550, 
        "typef": "apt"
    }, 
    {
        "lat": 37.2805906, 
        "lng": 126.9703463, 
        "name": " 경기도 수원시 권선구 구운동 933 14 가림29차104동", 
        "rn": 1248, 
        "typef": "apt"
    }, 
    {
        "lat": 37.7139568, 
        "lng": 126.7598256, 
        "name": " 경기도 파주시 야당동 981 0 한라비발디 센트럴파크(981)", 
        "rn": 3013, 
        "typef": "apt"
    }, 
    {
        "lat": 37.2811324, 
        "lng": 127.4346239, 
        "name": " 경기도 이천시 관고동 226 3 설봉", 
        "rn": 438, 
        "typef": "apt"
    }, 
    {
        "lat": 37.4350114, 
        "lng": 127.1399556, 
        "name": " 경기도 성남시 중원구 성남동 2396 0 신동아파밀리에", 
        "rn": 4636, 
        "typef": "apt"
    }, 
    {
        "lat": 37.1421969, 
        "lng": 127.0495223, 
        "name": " 경기도 오산시 누읍동 438 0 한라그린타운", 
        "rn": 1320, 
        "typef": "apt"
    }, 
    {
        "lat": 37.3290605, 
        "lng": 127.1264906, 
        "name": " 경기도 용인시 수지구 죽전동 858 11 한솔노블(108동)", 
        "rn": 3372, 
        "typef": "apt"
    }, 
    {
        "lat": 37.324157, 
        "lng": 127.082767, 
        "name": " 경기도 용인시 수지구 신봉동 876 0 벽산블루밍", 
        "rn": 5105, 
        "typef": "apt"
    }, 
    {
        "lat": 37.7086759, 
        "lng": 127.1131609, 
        "name": " 경기도 남양주시 별내면 청학리 476 0 동부일신", 
        "rn": 1043, 
        "typef": "apt"
    }, 
    {
        "lat": 37.4951255, 
        "lng": 126.7924726, 
        "name": " 경기도 부천시 원미구 원미동 114 1 원미동풍림", 
        "rn": 3343, 
        "typef": "apt"
    }, 
    {
        "lat": 37.2323529, 
        "lng": 127.1174464, 
        "name": " 경기도 용인시 기흥구 공세동 663 0 불곡마을(벽산블루밍)", 
        "rn": 2026, 
        "typef": "apt"
    }, 
    {
        "lat": 37.3077187, 
        "lng": 127.0127931, 
        "name": " 경기도 수원시 장안구 조원동 912 0 그대가포레스트", 
        "rn": 4170, 
        "typef": "apt"
    }, 
    {
        "lat": 37.7390616, 
        "lng": 127.1989376, 
        "name": " 경기도 남양주시 진접읍 부평리 764 0 진접센트레빌시티1단지", 
        "rn": 1640, 
        "typef": "apt"
    }, 
    {
        "lat": 37.7600403, 
        "lng": 127.0322644, 
        "name": " 경기도 의정부시 녹양동 374 1 신도9", 
        "rn": 1887, 
        "typef": "apt"
    }, 
    {
        "lat": 37.48135389999999, 
        "lng": 126.8126729, 
        "name": " 경기도 부천시 소사구 괴안동 118 0 대현(118)", 
        "rn": 1941, 
        "typef": "apt"
    }, 
    {
        "lat": 37.2015235, 
        "lng": 127.0422476, 
        "name": " 경기도 화성시 병점동 868 0 병점임광그대가", 
        "rn": 4357, 
        "typef": "apt"
    }, 
    {
        "lat": 37.3998485, 
        "lng": 126.9006481, 
        "name": " 경기도 안양시 만안구 박달동 149 1 금호타운", 
        "rn": 3099, 
        "typef": "apt"
    }, 
    {
        "lat": 37.3855729, 
        "lng": 126.9188756, 
        "name": " 경기도 안양시 만안구 안양동 689 135 넥스빌", 
        "rn": 544, 
        "typef": "apt"
    }, 
    {
        "lat": 36.9586582, 
        "lng": 127.2443446, 
        "name": " 경기도 안성시 미양면 양변리 240 19 금화마을", 
        "rn": 30, 
        "typef": "apt"
    }, 
    {
        "lat": 37.2665874, 
        "lng": 126.9748837, 
        "name": " 경기도 수원시 권선구 탑동 833 6 가림28차", 
        "rn": 3193, 
        "typef": "apt"
    }, 
    {
        "lat": 37.6662792, 
        "lng": 127.1133146, 
        "name": " 경기도 남양주시 별내동 1060 0 동익미라벨(1060-0)", 
        "rn": 4283, 
        "typef": "apt"
    }, 
    {
        "lat": 37.3920628, 
        "lng": 126.8854073, 
        "name": " 경기도 안양시 만안구 박달동 607 1 한일유앤아이", 
        "rn": 4471, 
        "typef": "apt"
    }, 
    {
        "lat": 37.7634857, 
        "lng": 126.9922661, 
        "name": " 경기도 양주시 백석읍 복지리 41 1 가야3", 
        "rn": 705, 
        "typef": "apt"
    }, 
    {
        "lat": 37.2941015, 
        "lng": 127.114851, 
        "name": " 경기도 용인시 기흥구 마북동 620 0 용화마을태영데시앙2", 
        "rn": 3792, 
        "typef": "apt"
    }, 
    {
        "lat": 37.3042402, 
        "lng": 127.047337, 
        "name": " 경기도 수원시 영통구 이의동 1211 0 광교한양수자인", 
        "rn": 5122, 
        "typef": "apt"
    }, 
    {
        "lat": 36.990205, 
        "lng": 126.860461, 
        "name": " 경기도 평택시 포승읍 도곡리 1120 5 스마트빌듀오2차", 
        "rn": 183, 
        "typef": "apt"
    }, 
    {
        "lat": 37.4848904, 
        "lng": 126.8051656, 
        "name": " 경기도 부천시 원미구 역곡동 46 1 은성", 
        "rn": 1040, 
        "typef": "apt"
    }, 
    {
        "lat": 37.6815601, 
        "lng": 126.769111, 
        "name": " 경기도 고양시 일산서구 일산동 651 1 일산2차현대홈타운", 
        "rn": 2934, 
        "typef": "apt"
    }, 
    {
        "lat": 37.7202048, 
        "lng": 127.0480385, 
        "name": " 경기도 의정부시 호원동 436 1 한주1", 
        "rn": 2763, 
        "typef": "apt"
    }, 
    {
        "lat": 37.5251626, 
        "lng": 126.8034465, 
        "name": " 경기도 부천시 오정구 원종동 221 8 욱일8차", 
        "rn": 501, 
        "typef": "apt"
    }, 
    {
        "lat": 37.3613121, 
        "lng": 127.1054907, 
        "name": " 경기도 성남시 분당구 정자동 174 1 분당더샵스타파크", 
        "rn": 5634, 
        "typef": "apt"
    }, 
    {
        "lat": 37.7352337, 
        "lng": 127.0917658, 
        "name": "부용중학교", 
        "rn": 1564, 
        "typef": "sch"
    }, 
    {
        "lat": 37.2953924, 
        "lng": 127.4357647, 
        "name": " 경기도 이천시 송정동 428 0 수림1차", 
        "rn": 1999, 
        "typef": "apt"
    }, 
    {
        "lat": 37.6496134, 
        "lng": 126.7886316, 
        "name": " 경기도 고양시 일산동구 백석동 1183 0 백송마을(우성)", 
        "rn": 3515, 
        "typef": "apt"
    }, 
    {
        "lat": 37.7355459, 
        "lng": 127.0412962, 
        "name": " 경기도 의정부시 의정부동 15 3 미리온타워", 
        "rn": 1796, 
        "typef": "apt"
    }, 
    {
        "lat": 37.3883271, 
        "lng": 126.7435649, 
        "name": " 경기도 시흥시 월곶동 994 0 월곶4차풍림아이원(월곶역전길90)", 
        "rn": 2002, 
        "typef": "apt"
    }, 
    {
        "lat": 37.3222685, 
        "lng": 126.9571847, 
        "name": " 경기도 의왕시 삼동 121 6 운양까치", 
        "rn": 2056, 
        "typef": "apt"
    }, 
    {
        "lat": 37.2418593, 
        "lng": 127.0499944, 
        "name": " 경기도 수원시 영통구 망포동 704 0 극동의푸른별", 
        "rn": 3682, 
        "typef": "apt"
    }, 
    {
        "lat": 37.436152, 
        "lng": 126.7829608, 
        "name": " 경기도 시흥시 신천동 844 10 한미금강", 
        "rn": 702, 
        "typef": "apt"
    }, 
    {
        "lat": 37.34860159999999, 
        "lng": 126.7271088, 
        "name": " 경기도 시흥시 정왕동 1874 1 신한미지엔", 
        "rn": 1922, 
        "typef": "apt"
    }, 
    {
        "lat": 37.2536538, 
        "lng": 127.0101331, 
        "name": " 경기도 수원시 권선구 세류동 1021 4 한주", 
        "rn": 1977, 
        "typef": "apt"
    }, 
    {
        "lat": 37.4821897, 
        "lng": 126.8075445, 
        "name": " 경기도 부천시 소사구 괴안동 110 5 정다움", 
        "rn": 4823, 
        "typef": "apt"
    }, 
    {
        "lat": 37.3547233, 
        "lng": 126.7339158, 
        "name": " 경기도 시흥시 정왕동 1872 6 한신공영", 
        "rn": 2935, 
        "typef": "apt"
    }, 
    {
        "lat": 37.05032449999999, 
        "lng": 127.0588346, 
        "name": " 경기도 평택시 장당동 629 0 한국아델리움", 
        "rn": 3029, 
        "typef": "apt"
    }, 
    {
        "lat": 37.5932745, 
        "lng": 127.1393401, 
        "name": " 경기도 구리시 수택동 445 20 현암(445-20)", 
        "rn": 3328, 
        "typef": "apt"
    }, 
    {
        "lat": 37.4363807, 
        "lng": 126.7980184, 
        "name": " 경기도 시흥시 은행동 543 1 대우2차", 
        "rn": 3565, 
        "typef": "apt"
    }, 
    {
        "lat": 37.7386694, 
        "lng": 127.0404864, 
        "name": " 경기도 의정부시 가능동 754 0 신동아파라디움", 
        "rn": 2076, 
        "typef": "apt"
    }, 
    {
        "lat": 37.3465454, 
        "lng": 126.9448725, 
        "name": " 경기도 군포시 당동 922 14 효성102동(922-14)", 
        "rn": 5189, 
        "typef": "apt"
    }, 
    {
        "lat": 37.5932458, 
        "lng": 127.1489248, 
        "name": " 경기도 구리시 수택동 684 6 우림", 
        "rn": 4205, 
        "typef": "apt"
    }, 
    {
        "lat": 37.2690834, 
        "lng": 127.2098053, 
        "name": " 경기도 용인시 처인구 유방동 1007 51 인정프린스3", 
        "rn": 1448, 
        "typef": "apt"
    }, 
    {
        "lat": 37.2859884, 
        "lng": 127.4456736, 
        "name": " 경기도 이천시 창전동 432 13 금성", 
        "rn": 1270, 
        "typef": "apt"
    }, 
    {
        "lat": 37.3855729, 
        "lng": 126.9188756, 
        "name": " 경기도 안양시 만안구 안양동 1055 1 극동메모리스", 
        "rn": 1457, 
        "typef": "apt"
    }, 
    {
        "lat": 37.2188361, 
        "lng": 127.0524342, 
        "name": "기산중학교", 
        "rn": 427, 
        "typef": "sch"
    }, 
    {
        "lat": 37.2328298, 
        "lng": 127.1950962, 
        "name": "용신중학교", 
        "rn": 1775, 
        "typef": "sch"
    }, 
    {
        "lat": 37.353375, 
        "lng": 126.9732855, 
        "name": " 경기도 의왕시 오전동 283 12 삼성미도(봉선화)", 
        "rn": 3607, 
        "typef": "apt"
    }, 
    {
        "lat": 37.242833, 
        "lng": 127.0518622, 
        "name": " 경기도 수원시 영통구 망포동 691 0 망포마을쌍용1차", 
        "rn": 3550, 
        "typef": "apt"
    }, 
    {
        "lat": 37.7014813, 
        "lng": 126.8987634, 
        "name": " 경기도 고양시 덕양구 고양동 255 0 현대2", 
        "rn": 1484, 
        "typef": "apt"
    }, 
    {
        "lat": 37.3781102, 
        "lng": 126.9530635, 
        "name": " 경기도 안양시 동안구 호계동 801 4 영풍", 
        "rn": 4555, 
        "typef": "apt"
    }, 
    {
        "lat": 37.2980237, 
        "lng": 127.6371628, 
        "name": " 경기도 여주시 월송동 380 5 두풍리치빌", 
        "rn": 896, 
        "typef": "apt"
    }, 
    {
        "lat": 37.3862037, 
        "lng": 127.2284719, 
        "name": " 경기도 광주시 태전동 692 0 태전동우림필유", 
        "rn": 3364, 
        "typef": "apt"
    }, 
    {
        "lat": 37.5930834, 
        "lng": 127.1351367, 
        "name": " 경기도 구리시 교문동 766 1 한성", 
        "rn": 2968, 
        "typef": "apt"
    }, 
    {
        "lat": 37.2524485, 
        "lng": 127.0709721, 
        "name": " 경기도 수원시 영통구 영통동 963 2 신나무실신성", 
        "rn": 4953, 
        "typef": "apt"
    }, 
    {
        "lat": 37.3301124, 
        "lng": 127.117384, 
        "name": " 경기도 용인시 수지구 죽전동 1483 0 죽전 휴먼빌", 
        "rn": 5531, 
        "typef": "apt"
    }, 
    {
        "lat": 37.4450366, 
        "lng": 126.8004441, 
        "name": " 경기도 시흥시 은행동 599 0 우남", 
        "rn": 4046, 
        "typef": "apt"
    }, 
    {
        "lat": 37.6816988, 
        "lng": 127.2123489, 
        "name": " 경기도 남양주시 오남읍 오남리 362 0 한신1", 
        "rn": 379, 
        "typef": "apt"
    }, 
    {
        "lat": 37.2525015, 
        "lng": 127.0210553, 
        "name": " 경기도 수원시 권선구 권선동 1188 1 성지", 
        "rn": 2154, 
        "typef": "apt"
    }, 
    {
        "lat": 37.2933522, 
        "lng": 127.153834, 
        "name": " 경기도 용인시 기흥구 청덕동 567 0 호반베르디움", 
        "rn": 2453, 
        "typef": "apt"
    }, 
    {
        "lat": 37.2524485, 
        "lng": 127.0709721, 
        "name": " 경기도 수원시 영통구 영통동 1046 1 청명마을삼성", 
        "rn": 4612, 
        "typef": "apt"
    }, 
    {
        "lat": 37.5319242, 
        "lng": 126.8042742, 
        "name": " 경기도 부천시 오정구 원종동 67 0 동문2", 
        "rn": 2263, 
        "typef": "apt"
    }, 
    {
        "lat": 37.3660553, 
        "lng": 126.7320264, 
        "name": " 경기도 시흥시 정왕동 1878 5 동원", 
        "rn": 2624, 
        "typef": "apt"
    }, 
    {
        "lat": 37.6914139, 
        "lng": 127.2131918, 
        "name": " 경기도 남양주시 오남읍 오남리 683 37 진주(9차)", 
        "rn": 170, 
        "typef": "apt"
    }, 
    {
        "lat": 37.0687929, 
        "lng": 127.0607779, 
        "name": " 경기도 평택시 서정동 793 0 동산1", 
        "rn": 605, 
        "typef": "apt"
    }, 
    {
        "lat": 37.3751265, 
        "lng": 126.938854, 
        "name": " 경기도 군포시 산본동 48 0 에덴다모은정", 
        "rn": 4727, 
        "typef": "apt"
    }, 
    {
        "lat": 37.528659, 
        "lng": 126.8038937, 
        "name": " 경기도 부천시 오정구 원종동 262 3 해주", 
        "rn": 3273, 
        "typef": "apt"
    }, 
    {
        "lat": 37.4022573, 
        "lng": 126.9619872, 
        "name": " 경기도 안양시 동안구 관양동 1454 4 해오름", 
        "rn": 3837, 
        "typef": "apt"
    }, 
    {
        "lat": 37.2879835, 
        "lng": 127.1190086, 
        "name": " 경기도 용인시 기흥구 신갈동 697 0 녹원마을새천년5단지", 
        "rn": 4217, 
        "typef": "apt"
    }, 
    {
        "lat": 37.38384509999999, 
        "lng": 126.8590148, 
        "name": " 경기도 시흥시 조남동 169 12 세원", 
        "rn": 1228, 
        "typef": "apt"
    }, 
    {
        "lat": 37.3877838, 
        "lng": 127.0856908, 
        "name": " 경기도 성남시 분당구 판교동 629 0 판교원마을3단지(푸르지오)", 
        "rn": 5644, 
        "typef": "apt"
    }, 
    {
        "lat": 37.7409657, 
        "lng": 127.0919579, 
        "name": " 경기도 의정부시 민락동 691 1 산들마을(현대)", 
        "rn": 2256, 
        "typef": "apt"
    }, 
    {
        "lat": 37.3199833, 
        "lng": 126.8354048, 
        "name": " 경기도 안산시 단원구 고잔동 532 0 주공1", 
        "rn": 223, 
        "typef": "apt"
    }, 
    {
        "lat": 37.5155174, 
        "lng": 126.8052543, 
        "name": " 경기도 부천시 오정구 작동 67 2 세영프라임아파트", 
        "rn": 3507, 
        "typef": "apt"
    }, 
    {
        "lat": 37.3855729, 
        "lng": 126.9188756, 
        "name": " 경기도 안양시 만안구 안양동 622 299 원평노블레스(622-299)", 
        "rn": 87, 
        "typef": "apt"
    }, 
    {
        "lat": 37.4885005, 
        "lng": 126.8148812, 
        "name": " 경기도 부천시 원미구 역곡동 115 11 신도그랑피아", 
        "rn": 4289, 
        "typef": "apt"
    }, 
    {
        "lat": 37.7460838, 
        "lng": 127.0251133, 
        "name": "경민중학교", 
        "rn": 774, 
        "typef": "sch"
    }, 
    {
        "lat": 37.2736145, 
        "lng": 126.9447704, 
        "name": "칠보중학교", 
        "rn": 1789, 
        "typef": "sch"
    }, 
    {
        "lat": 37.6444652, 
        "lng": 127.2359107, 
        "name": " 경기도 남양주시 평내동 550 0 평내마을금호어울림", 
        "rn": 2970, 
        "typef": "apt"
    }, 
    {
        "lat": 37.2548098, 
        "lng": 127.0227008, 
        "name": "곡선중학교", 
        "rn": 1626, 
        "typef": "sch"
    }, 
    {
        "lat": 37.2377623, 
        "lng": 127.1878599, 
        "name": " 경기도 용인시 처인구 역북동 418 3 청수라이프", 
        "rn": 1021, 
        "typef": "apt"
    }, 
    {
        "lat": 37.6777393, 
        "lng": 126.7612373, 
        "name": "오마중학교", 
        "rn": 149, 
        "typef": "sch"
    }, 
    {
        "lat": 37.3855729, 
        "lng": 126.9188756, 
        "name": " 경기도 안양시 만안구 안양동 689 16 삼성그린103동", 
        "rn": 3291, 
        "typef": "apt"
    }, 
    {
        "lat": 37.70406, 
        "lng": 127.0489992, 
        "name": " 경기도 의정부시 호원동 467 0 I-PARK", 
        "rn": 4232, 
        "typef": "apt"
    }, 
    {
        "lat": 37.6521317, 
        "lng": 126.7834639, 
        "name": " 경기도 고양시 일산동구 마두동 787 0 강촌마을(미도파)", 
        "rn": 3642, 
        "typef": "apt"
    }, 
    {
        "lat": 36.9955727, 
        "lng": 127.103844, 
        "name": " 경기도 평택시 비전동 820 0 윤중수신제가", 
        "rn": 2668, 
        "typef": "apt"
    }, 
    {
        "lat": 37.4373308, 
        "lng": 126.8768233, 
        "name": " 경기도 광명시 소하동 889 1 개운고층", 
        "rn": 3243, 
        "typef": "apt"
    }, 
    {
        "lat": 37.4369886, 
        "lng": 126.8760871, 
        "name": " 경기도 광명시 소하동 896 0 현대1", 
        "rn": 3659, 
        "typef": "apt"
    }, 
    {
        "lat": 37.4852741, 
        "lng": 126.8163365, 
        "name": " 경기도 부천시 소사구 괴안동 175 6 대성(175-6)", 
        "rn": 923, 
        "typef": "apt"
    }, 
    {
        "lat": 37.4816979, 
        "lng": 126.8116724, 
        "name": " 경기도 부천시 소사구 괴안동 105 4 현대1차", 
        "rn": 2349, 
        "typef": "apt"
    }, 
    {
        "lat": 37.6662792, 
        "lng": 127.1133146, 
        "name": " 경기도 남양주시 별내동 1047 0 신안인스빌", 
        "rn": 4484, 
        "typef": "apt"
    }, 
    {
        "lat": 37.8545937, 
        "lng": 126.7879939, 
        "name": " 경기도 파주시 문산읍 문산리 17 25 청도훼미리맨션", 
        "rn": 510, 
        "typef": "apt"
    }, 
    {
        "lat": 37.23486570000001, 
        "lng": 126.9550715, 
        "name": " 경기도 화성시 봉담읍 수영리 672 0 한울마을신창비바패밀리1단지", 
        "rn": 2303, 
        "typef": "apt"
    }, 
    {
        "lat": 37.8267406, 
        "lng": 127.1399095, 
        "name": "대경중학교", 
        "rn": 2164, 
        "typef": "sch"
    }, 
    {
        "lat": 37.3056125, 
        "lng": 126.9047017, 
        "name": " 경기도 안산시 상록구 건건동 665 0 반월서해", 
        "rn": 2686, 
        "typef": "apt"
    }, 
    {
        "lat": 37.2753204, 
        "lng": 126.9787001, 
        "name": " 경기도 수원시 권선구 탑동 1 27 새롬102동", 
        "rn": 2906, 
        "typef": "apt"
    }, 
    {
        "lat": 37.4427961, 
        "lng": 127.1395105, 
        "name": " 경기도 성남시 수정구 신흥동 5519 0 이룸", 
        "rn": 3811, 
        "typef": "apt"
    }, 
    {
        "lat": 37.3632031, 
        "lng": 126.9415078, 
        "name": " 경기도 군포시 금정동 723 8 그린트루빌", 
        "rn": 2938, 
        "typef": "apt"
    }, 
    {
        "lat": 37.3718535, 
        "lng": 126.8114035, 
        "name": " 경기도 시흥시 능곡동 548 0 현진에버빌", 
        "rn": 4066, 
        "typef": "apt"
    }, 
    {
        "lat": 37.526218, 
        "lng": 126.799125, 
        "name": " 경기도 부천시 오정구 원종동 138 12 유림", 
        "rn": 368, 
        "typef": "apt"
    }, 
    {
        "lat": 37.191061, 
        "lng": 127.072848, 
        "name": " 경기도 화성시 반송동 200 0 나루마을한화꿈에그린", 
        "rn": 4496, 
        "typef": "apt"
    }, 
    {
        "lat": 37.019919, 
        "lng": 126.9093851, 
        "name": " 경기도 평택시 청북면 옥길리 1091 0 평택 청북 이안아파트", 
        "rn": 2029, 
        "typef": "apt"
    }, 
    {
        "lat": 37.490165, 
        "lng": 126.8099733, 
        "name": " 경기도 부천시 원미구 역곡동 99 0 영신", 
        "rn": 4575, 
        "typef": "apt"
    }, 
    {
        "lat": 37.3797911, 
        "lng": 126.9525762, 
        "name": " 경기도 안양시 동안구 호계동 935 19 강남3차", 
        "rn": 2241, 
        "typef": "apt"
    }, 
    {
        "lat": 37.2598457, 
        "lng": 127.031616, 
        "name": " 경기도 수원시 팔달구 인계동 1131 0 선경리빙빌라트", 
        "rn": 1954, 
        "typef": "apt"
    }, 
    {
        "lat": 37.6590745, 
        "lng": 126.6252163, 
        "name": "양곡중학교", 
        "rn": 2231, 
        "typef": "sch"
    }, 
    {
        "lat": 37.287916, 
        "lng": 127.4453121, 
        "name": " 경기도 이천시 송정동 445 0 현진에버빌1차", 
        "rn": 3610, 
        "typef": "apt"
    }, 
    {
        "lat": 37.4045314, 
        "lng": 126.9074696, 
        "name": " 경기도 안양시 만안구 박달동 34 0 한신휴플러스2차", 
        "rn": 4659, 
        "typef": "apt"
    }, 
    {
        "lat": 37.2094278, 
        "lng": 127.0387836, 
        "name": " 경기도 화성시 병점동 866 0 다정마을신한에스빌1차", 
        "rn": 3750, 
        "typef": "apt"
    }, 
    {
        "lat": 37.6079612, 
        "lng": 127.1305802, 
        "name": " 경기도 구리시 인창동 641 23 대양", 
        "rn": 44, 
        "typef": "apt"
    }, 
    {
        "lat": 37.2455654, 
        "lng": 127.1885461, 
        "name": " 경기도 용인시 처인구 역북동 434 42 유장(434-42)", 
        "rn": 1073, 
        "typef": "apt"
    }, 
    {
        "lat": 37.43645310000001, 
        "lng": 127.1411922, 
        "name": " 경기도 성남시 중원구 성남동 2163 0 동부브리앙뜨", 
        "rn": 3775, 
        "typef": "apt"
    }, 
    {
        "lat": 37.0126205, 
        "lng": 127.2681399, 
        "name": " 경기도 안성시 금산동 81 2 주은청설", 
        "rn": 1398, 
        "typef": "apt"
    }, 
    {
        "lat": 37.0587474, 
        "lng": 127.0672971, 
        "name": " 경기도 평택시 이충동 674 0 정암마을뜨란채", 
        "rn": 2578, 
        "typef": "apt"
    }, 
    {
        "lat": 37.4914823, 
        "lng": 127.59889, 
        "name": "용문중학교", 
        "rn": 2116, 
        "typef": "sch"
    }, 
    {
        "lat": 37.6022335, 
        "lng": 127.1565586, 
        "name": " 경기도 남양주시 가운동 674 0 휴먼시아3단지", 
        "rn": 4770, 
        "typef": "apt"
    }, 
    {
        "lat": 37.63513990000001, 
        "lng": 127.199155, 
        "name": " 경기도 남양주시 금곡동 702 0 광아", 
        "rn": 387, 
        "typef": "apt"
    }, 
    {
        "lat": 37.6895639, 
        "lng": 127.2089821, 
        "name": " 경기도 남양주시 오남읍 오남리 632 1 진주(5단지)", 
        "rn": 188, 
        "typef": "apt"
    }, 
    {
        "lat": 37.2663947, 
        "lng": 127.1121786, 
        "name": " 경기도 용인시 기흥구 상갈동 454 0 금화주공5단지(454)", 
        "rn": 4228, 
        "typef": "apt"
    }, 
    {
        "lat": 37.1984, 
        "lng": 127.0423197, 
        "name": " 경기도 화성시 병점동 506 0 송화마을우남퍼스트빌3차", 
        "rn": 2484, 
        "typef": "apt"
    }, 
    {
        "lat": 37.6662792, 
        "lng": 127.1133146, 
        "name": " 경기도 남양주시 별내동 1056 0 쌍용예가", 
        "rn": 3836, 
        "typef": "apt"
    }, 
    {
        "lat": 37.3485091, 
        "lng": 126.9770154, 
        "name": " 경기도 의왕시 고천동 517 0 영광", 
        "rn": 2306, 
        "typef": "apt"
    }, 
    {
        "lat": 37.80697929999999, 
        "lng": 127.0609279, 
        "name": " 경기도 양주시 덕계동 856 0 현진에버빌2단지", 
        "rn": 1243, 
        "typef": "apt"
    }, 
    {
        "lat": 37.8263051, 
        "lng": 127.1398679, 
        "name": " 경기도 포천시 소흘읍 송우리 430 8 원일산호2", 
        "rn": 1314, 
        "typef": "apt"
    }, 
    {
        "lat": 37.6166329, 
        "lng": 127.1600784, 
        "name": " 경기도 남양주시 지금동 395 0 동원베네스트", 
        "rn": 4204, 
        "typef": "apt"
    }, 
    {
        "lat": 37.4783116, 
        "lng": 126.807622, 
        "name": " 경기도 부천시 소사구 괴안동 88 0 현대(88-0)", 
        "rn": 2030, 
        "typef": "apt"
    }, 
    {
        "lat": 37.2931107, 
        "lng": 127.0235734, 
        "name": " 경기도 수원시 장안구 연무동 252 4 화영", 
        "rn": 1042, 
        "typef": "apt"
    }, 
    {
        "lat": 37.3042836, 
        "lng": 127.125608, 
        "name": " 경기도 용인시 기흥구 마북동 617 0 교동마을엘지", 
        "rn": 3005, 
        "typef": "apt"
    }, 
    {
        "lat": 37.2101228, 
        "lng": 127.0735353, 
        "name": " 경기도 화성시 석우동 55 0 롯데캐슬", 
        "rn": 4982, 
        "typef": "apt"
    }, 
    {
        "lat": 36.9880836, 
        "lng": 126.9212144, 
        "name": " 경기도 평택시 안중읍 학현리 505 10 다인", 
        "rn": 18, 
        "typef": "apt"
    }, 
    {
        "lat": 37.296901, 
        "lng": 127.13038, 
        "name": " 경기도 용인시 기흥구 언남동 126 1 효성빌라(102동)", 
        "rn": 1018, 
        "typef": "apt"
    }, 
    {
        "lat": 37.23157210000001, 
        "lng": 127.0604608, 
        "name": " 경기도 화성시 반월동 860 0 신영통현대3차", 
        "rn": 2603, 
        "typef": "apt"
    }, 
    {
        "lat": 37.7529912, 
        "lng": 126.7755266, 
        "name": " 경기도 파주시 금촌동 1003 0 쇠재마을뜨란채주공5단지", 
        "rn": 3188, 
        "typef": "apt"
    }, 
    {
        "lat": 37.8957784, 
        "lng": 127.0827839, 
        "name": " 경기도 동두천시 광암동 484 3 한성", 
        "rn": 26, 
        "typef": "apt"
    }, 
    {
        "lat": 37.3805289, 
        "lng": 127.2319582, 
        "name": " 경기도 광주시 태전동 691 0 e-편한세상", 
        "rn": 2364, 
        "typef": "apt"
    }, 
    {
        "lat": 37.3616601, 
        "lng": 126.9261792, 
        "name": " 경기도 군포시 산본동 1146 11 우륵", 
        "rn": 5183, 
        "typef": "apt"
    }, 
    {
        "lat": 37.6076339, 
        "lng": 127.1310314, 
        "name": " 경기도 구리시 인창동 640 12 필그린아", 
        "rn": 4614, 
        "typef": "apt"
    }, 
    {
        "lat": 37.292342, 
        "lng": 127.051601, 
        "name": "연무중학교", 
        "rn": 95, 
        "typef": "sch"
    }, 
    {
        "lat": 37.3471457, 
        "lng": 127.1197016, 
        "name": "불곡중학교", 
        "rn": 199, 
        "typef": "sch"
    }, 
    {
        "lat": 37.2918733, 
        "lng": 127.4652179, 
        "name": " 경기도 이천시 갈산동 777 0 신일해피트리", 
        "rn": 2271, 
        "typef": "apt"
    }, 
    {
        "lat": 37.2069255, 
        "lng": 127.0418929, 
        "name": " 경기도 화성시 병점동 201 2 신미주", 
        "rn": 3234, 
        "typef": "apt"
    }, 
    {
        "lat": 37.2314934, 
        "lng": 127.2833544, 
        "name": "용동중학교", 
        "rn": 1374, 
        "typef": "sch"
    }, 
    {
        "lat": 37.3879727, 
        "lng": 126.9764456, 
        "name": " 경기도 의왕시 내손동 842 0 래미안에버하임", 
        "rn": 5501, 
        "typef": "apt"
    }, 
    {
        "lat": 37.5436473, 
        "lng": 127.2013817, 
        "name": " 경기도 하남시 덕풍동 692 0 하남한솔솔파크", 
        "rn": 5026, 
        "typef": "apt"
    }, 
    {
        "lat": 37.3728658, 
        "lng": 126.9296662, 
        "name": "곡란중학교", 
        "rn": 1725, 
        "typef": "sch"
    }, 
    {
        "lat": 37.4878994, 
        "lng": 126.7804683, 
        "name": " 경기도 부천시 원미구 심곡동 349 3 노마즈하우스", 
        "rn": 1216, 
        "typef": "apt"
    }, 
    {
        "lat": 37.6767909, 
        "lng": 126.7604063, 
        "name": " 경기도 고양시 일산서구 주엽동 5 0 문촌마을(라이프)", 
        "rn": 3716, 
        "typef": "apt"
    }, 
    {
        "lat": 37.2477253, 
        "lng": 127.0363767, 
        "name": " 경기도 수원시 권선구 권선동 1320 0 우남2", 
        "rn": 3850, 
        "typef": "apt"
    }, 
    {
        "lat": 37.3095812, 
        "lng": 127.097069, 
        "name": " 경기도 용인시 기흥구 보정동 1169 0 솔뫼마을현대홈타운", 
        "rn": 2153, 
        "typef": "apt"
    }, 
    {
        "lat": 37.2164827, 
        "lng": 127.2828281, 
        "name": " 경기도 용인시 처인구 양지면 남곡리 76 26 양지꼬따쥬(B동)", 
        "rn": 1653, 
        "typef": "apt"
    }, 
    {
        "lat": 37.3566876, 
        "lng": 126.9390098, 
        "name": "금정중학교", 
        "rn": 1340, 
        "typef": "sch"
    }, 
    {
        "lat": 37.0219343, 
        "lng": 127.2749454, 
        "name": "안청중학교", 
        "rn": 1894, 
        "typef": "sch"
    }, 
    {
        "lat": 37.2524485, 
        "lng": 127.0709721, 
        "name": " 경기도 수원시 영통구 영통동 965 2 신나무실신원", 
        "rn": 4151, 
        "typef": "apt"
    }, 
    {
        "lat": 37.6237161, 
        "lng": 126.8621102, 
        "name": " 경기도 고양시 덕양구 도내동 1011 0 엘에이치원흥도래울마을4단지", 
        "rn": 4368, 
        "typef": "apt"
    }, 
    {
        "lat": 37.5003271, 
        "lng": 126.7498232, 
        "name": " 경기도 부천시 원미구 상동 570 1 하얀마을(현대)", 
        "rn": 4922, 
        "typef": "apt"
    }, 
    {
        "lat": 37.1424395, 
        "lng": 127.046524, 
        "name": " 경기도 오산시 누읍동 561 1 이림", 
        "rn": 1133, 
        "typef": "apt"
    }, 
    {
        "lat": 37.7175233, 
        "lng": 127.0478029, 
        "name": " 경기도 의정부시 호원동 442 0 성호", 
        "rn": 2799, 
        "typef": "apt"
    }, 
    {
        "lat": 37.3241541, 
        "lng": 127.0932899, 
        "name": " 경기도 용인시 수지구 풍덕천동 1195 0 수지 푸르지오 월드마크", 
        "rn": 5069, 
        "typef": "apt"
    }, 
    {
        "lat": 37.9012473, 
        "lng": 127.0653643, 
        "name": " 경기도 동두천시 생연동 268 5 조흥", 
        "rn": 82, 
        "typef": "apt"
    }, 
    {
        "lat": 37.6261625, 
        "lng": 126.8342171, 
        "name": " 경기도 고양시 덕양구 화정동 1135 0 옥빛마을(주공)17(에듀뷰)", 
        "rn": 4388, 
        "typef": "apt"
    }, 
    {
        "lat": 37.6310941, 
        "lng": 127.2141655, 
        "name": " 경기도 남양주시 금곡동 164 15 광일", 
        "rn": 573, 
        "typef": "apt"
    }, 
    {
        "lat": 37.4699183, 
        "lng": 126.8020928, 
        "name": "소사중학교", 
        "rn": 1783, 
        "typef": "sch"
    }, 
    {
        "lat": 37.2857041, 
        "lng": 127.4819694, 
        "name": " 경기도 이천시 부발읍 무촌리 423 0 그린", 
        "rn": 201, 
        "typef": "apt"
    }, 
    {
        "lat": 37.9185053, 
        "lng": 127.2237002, 
        "name": " 경기도 포천시 신북면 기지리 740 0 산호", 
        "rn": 212, 
        "typef": "apt"
    }, 
    {
        "lat": 37.2874372, 
        "lng": 127.0311023, 
        "name": " 경기도 수원시 팔달구 우만동 496 0 풍림", 
        "rn": 786, 
        "typef": "apt"
    }, 
    {
        "lat": 37.681541, 
        "lng": 126.7770671, 
        "name": " 경기도 고양시 일산서구 일산동 1654 0 산들마을3단지", 
        "rn": 3220, 
        "typef": "apt"
    }, 
    {
        "lat": 37.0300457, 
        "lng": 127.2672108, 
        "name": " 경기도 안성시 금석동 81 0 동남", 
        "rn": 440, 
        "typef": "apt"
    }, 
    {
        "lat": 37.255387, 
        "lng": 127.0154357, 
        "name": " 경기도 수원시 권선구 세류동 1248 0 녹턴", 
        "rn": 1890, 
        "typef": "apt"
    }, 
    {
        "lat": 37.6310252, 
        "lng": 126.7052943, 
        "name": " 경기도 김포시 북변동 135 0 함성1", 
        "rn": 487, 
        "typef": "apt"
    }, 
    {
        "lat": 37.3847006, 
        "lng": 126.9512138, 
        "name": " 경기도 안양시 동안구 호계동 923 28 신도브래뉴", 
        "rn": 5123, 
        "typef": "apt"
    }, 
    {
        "lat": 37.6135325, 
        "lng": 126.8373728, 
        "name": " 경기도 고양시 덕양구 행신동 767 0 무원마을5단지", 
        "rn": 3121, 
        "typef": "apt"
    }, 
    {
        "lat": 37.28993699999999, 
        "lng": 127.1106807, 
        "name": " 경기도 용인시 기흥구 신갈동 681 0 녹원마을새천년그린빌(1)", 
        "rn": 4676, 
        "typef": "apt"
    }, 
    {
        "lat": 37.3847006, 
        "lng": 126.9512138, 
        "name": " 경기도 안양시 동안구 호계동 923 30 엘디범계마을", 
        "rn": 4864, 
        "typef": "apt"
    }, 
    {
        "lat": 37.2737146, 
        "lng": 126.9774296, 
        "name": " 경기도 수원시 권선구 탑동 30 9 청우", 
        "rn": 53, 
        "typef": "apt"
    }, 
    {
        "lat": 37.66978539999999, 
        "lng": 126.7665746, 
        "name": " 경기도 고양시 일산서구 주엽동 63 0 강선마을(롯데)", 
        "rn": 4560, 
        "typef": "apt"
    }, 
    {
        "lat": 37.3576103, 
        "lng": 126.9458656, 
        "name": " 경기도 군포시 당동 734 0 동막마을군포제일", 
        "rn": 2023, 
        "typef": "apt"
    }, 
    {
        "lat": 37.1958165, 
        "lng": 127.0729195, 
        "name": " 경기도 화성시 반송동 90 9 동탄 플래티넘", 
        "rn": 2403, 
        "typef": "apt"
    }, 
    {
        "lat": 37.5003271, 
        "lng": 126.7498232, 
        "name": " 경기도 부천시 원미구 상동 500 4 다정한마을(삼성)", 
        "rn": 4786, 
        "typef": "apt"
    }, 
    {
        "lat": 37.1609873, 
        "lng": 127.0747624, 
        "name": " 경기도 오산시 은계동 29 0 현대복지", 
        "rn": 1241, 
        "typef": "apt"
    }, 
    {
        "lat": 37.6449061, 
        "lng": 126.6695965, 
        "name": " 경기도 김포시 장기동 2071 2 초당마을 래미안 한강", 
        "rn": 3098, 
        "typef": "apt"
    }, 
    {
        "lat": 37.3051467, 
        "lng": 126.8488866, 
        "name": " 경기도 안산시 상록구 사동 1532 0 푸른마을주공2", 
        "rn": 4598, 
        "typef": "apt"
    }, 
    {
        "lat": 37.5962281, 
        "lng": 127.1453311, 
        "name": " 경기도 구리시 수택동 626 19 갑우", 
        "rn": 935, 
        "typef": "apt"
    }, 
    {
        "lat": 37.7313321, 
        "lng": 127.0504554, 
        "name": " 경기도 의정부시 의정부동 383 0 의정부동영무예다음", 
        "rn": 1677, 
        "typef": "apt"
    }, 
    {
        "lat": 37.5879951, 
        "lng": 127.2207743, 
        "name": " 경기도 남양주시 와부읍 덕소리 612 0 덕소아이파크", 
        "rn": 4853, 
        "typef": "apt"
    }, 
    {
        "lat": 37.7831617, 
        "lng": 126.9915498, 
        "name": " 경기도 양주시 백석읍 복지리 80 0 가야5차써니빌", 
        "rn": 1056, 
        "typef": "apt"
    }, 
    {
        "lat": 37.3196886, 
        "lng": 126.9492747, 
        "name": " 경기도 의왕시 삼동 192 244 영동", 
        "rn": 1472, 
        "typef": "apt"
    }, 
    {
        "lat": 37.6153095, 
        "lng": 126.7210436, 
        "name": " 경기도 김포시 사우동 300 0 원미", 
        "rn": 258, 
        "typef": "apt"
    }, 
    {
        "lat": 37.6360382, 
        "lng": 127.3055207, 
        "name": " 경기도 남양주시 화도읍 차산리 875 0 신창현풍림아이원1차", 
        "rn": 1925, 
        "typef": "apt"
    }, 
    {
        "lat": 36.9973748, 
        "lng": 126.8974593, 
        "name": " 경기도 평택시 포승읍 석정리 306 5 한라파인빌", 
        "rn": 381, 
        "typef": "apt"
    }, 
    {
        "lat": 37.4287555, 
        "lng": 127.1350421, 
        "name": " 경기도 성남시 중원구 하대원동 105 2 주원파크빌", 
        "rn": 5154, 
        "typef": "apt"
    }, 
    {
        "lat": 37.3534769, 
        "lng": 126.9715038, 
        "name": " 경기도 의왕시 오전동 216 1 신안1단지(1,2동)", 
        "rn": 3295, 
        "typef": "apt"
    }, 
    {
        "lat": 37.38054500000001, 
        "lng": 126.9497078, 
        "name": " 경기도 안양시 동안구 호계동 283 7 덕원", 
        "rn": 2826, 
        "typef": "apt"
    }, 
    {
        "lat": 37.2428091, 
        "lng": 126.9529736, 
        "name": " 경기도 화성시 매송면 천천리 92 0 삼미B단지", 
        "rn": 717, 
        "typef": "apt"
    }, 
    {
        "lat": 37.7224762, 
        "lng": 127.1867917, 
        "name": " 경기도 남양주시 진접읍 장현리 203 2 장미", 
        "rn": 722, 
        "typef": "apt"
    }, 
    {
        "lat": 37.6582876, 
        "lng": 127.2969878, 
        "name": " 경기도 남양주시 화도읍 마석우리 552 0 보미청광플러스원", 
        "rn": 2133, 
        "typef": "apt"
    }, 
    {
        "lat": 37.263818, 
        "lng": 127.4296755, 
        "name": " 경기도 이천시 증일동 82 7 이천현대홈타운", 
        "rn": 3304, 
        "typef": "apt"
    }, 
    {
        "lat": 37.8359525, 
        "lng": 127.0654174, 
        "name": " 경기도 양주시 덕정동 235 0 봉우마을(주공5단지)", 
        "rn": 1254, 
        "typef": "apt"
    }, 
    {
        "lat": 37.5270398, 
        "lng": 126.8139233, 
        "name": " 경기도 부천시 오정구 고강동 328 0 청광플러스원", 
        "rn": 3104, 
        "typef": "apt"
    }, 
    {
        "lat": 37.7617006, 
        "lng": 127.0277808, 
        "name": "녹양중학교", 
        "rn": 2083, 
        "typef": "sch"
    }, 
    {
        "lat": 37.4918773, 
        "lng": 127.4869099, 
        "name": " 경기도 양평군 양평읍 양근리 657 0 대은팰리스뷰", 
        "rn": 2569, 
        "typef": "apt"
    }, 
    {
        "lat": 37.7040336, 
        "lng": 126.7540025, 
        "name": " 경기도 고양시 일산서구 덕이동 1524 0 하이파크시티 일산아이파크1단지", 
        "rn": 2136, 
        "typef": "apt"
    }, 
    {
        "lat": 37.079751, 
        "lng": 127.0689597, 
        "name": " 경기도 평택시 지산동 1217 0 케이씨씨스위첸", 
        "rn": 2918, 
        "typef": "apt"
    }, 
    {
        "lat": 37.3557771, 
        "lng": 127.1107872, 
        "name": "청솔중학교", 
        "rn": 391, 
        "typef": "sch"
    }, 
    {
        "lat": 37.2404898, 
        "lng": 127.4894144, 
        "name": " 경기도 이천시 대월면 사동리 312 1 삼진1동", 
        "rn": 79, 
        "typef": "apt"
    }, 
    {
        "lat": 37.4849494, 
        "lng": 126.765165, 
        "name": " 경기도 부천시 소사구 송내동 372 0 푸르지오", 
        "rn": 5230, 
        "typef": "apt"
    }, 
    {
        "lat": 37.5198721, 
        "lng": 126.7932853, 
        "name": "성곡중학교", 
        "rn": 2140, 
        "typef": "sch"
    }, 
    {
        "lat": 37.0009308, 
        "lng": 127.1775304, 
        "name": " 경기도 안성시 공도읍 만정리 877 0 안성공도KCC스위첸", 
        "rn": 2177, 
        "typef": "apt"
    }, 
    {
        "lat": 37.6571359, 
        "lng": 127.2499862, 
        "name": " 경기도 남양주시 호평동 196 1 남양", 
        "rn": 133, 
        "typef": "apt"
    }, 
    {
        "lat": 37.6214872, 
        "lng": 126.8449472, 
        "name": " 경기도 고양시 덕양구 행신동 1054 0 한가람", 
        "rn": 3322, 
        "typef": "apt"
    }, 
    {
        "lat": 37.2686457, 
        "lng": 127.0759171, 
        "name": " 경기도 용인시 기흥구 영덕동 916 0 영통빌리지", 
        "rn": 3669, 
        "typef": "apt"
    }, 
    {
        "lat": 37.473259, 
        "lng": 126.7949776, 
        "name": " 경기도 부천시 소사구 소사본동 190 3 소라", 
        "rn": 774, 
        "typef": "apt"
    }, 
    {
        "lat": 37.2572094, 
        "lng": 127.1389599, 
        "name": " 경기도 용인시 기흥구 상하동 621 0 쌍용(3단지)", 
        "rn": 2530, 
        "typef": "apt"
    }, 
    {
        "lat": 37.4835462, 
        "lng": 126.8005557, 
        "name": " 경기도 부천시 원미구 역곡동 20 2 현진리더빌", 
        "rn": 4200, 
        "typef": "apt"
    }, 
    {
        "lat": 37.6184888, 
        "lng": 126.7006377, 
        "name": " 경기도 김포시 감정동 685 0 푸른마을(신안)", 
        "rn": 1292, 
        "typef": "apt"
    }, 
    {
        "lat": 37.30455200000001, 
        "lng": 127.0847265, 
        "name": " 경기도 용인시 수지구 상현동 851 0 상현마을현대성우1차", 
        "rn": 2650, 
        "typef": "apt"
    }, 
    {
        "lat": 37.3723712, 
        "lng": 127.136067, 
        "name": " 경기도 성남시 분당구 서현동 308 0 효자촌(럭키)", 
        "rn": 5461, 
        "typef": "apt"
    }, 
    {
        "lat": 37.4410495, 
        "lng": 127.1434326, 
        "name": " 경기도 성남시 수정구 신흥동 4535 0 신세계", 
        "rn": 3590, 
        "typef": "apt"
    }, 
    {
        "lat": 37.433215, 
        "lng": 127.1323523, 
        "name": " 경기도 성남시 중원구 성남동 3264 0 쉐르진", 
        "rn": 5079, 
        "typef": "apt"
    }, 
    {
        "lat": 37.4816979, 
        "lng": 126.8116724, 
        "name": " 경기도 부천시 소사구 괴안동 105 3 현대2차", 
        "rn": 1498, 
        "typef": "apt"
    }, 
    {
        "lat": 37.4026676, 
        "lng": 126.957214, 
        "name": " 경기도 안양시 동안구 관양동 1443 7 내안에", 
        "rn": 4860, 
        "typef": "apt"
    }, 
    {
        "lat": 37.3199788, 
        "lng": 127.0861529, 
        "name": " 경기도 용인시 수지구 풍덕천동 1025 0 신정마을우성", 
        "rn": 4841, 
        "typef": "apt"
    }, 
    {
        "lat": 37.5311461, 
        "lng": 126.8079625, 
        "name": " 경기도 부천시 오정구 원종동 334 1 동진2", 
        "rn": 1989, 
        "typef": "apt"
    }, 
    {
        "lat": 37.5211628, 
        "lng": 126.8073499, 
        "name": " 경기도 부천시 오정구 원종동 363 8 삼일", 
        "rn": 85, 
        "typef": "apt"
    }, 
    {
        "lat": 37.3554527, 
        "lng": 126.7745238, 
        "name": " 경기도 시흥시 거모동 1765 5 녹원", 
        "rn": 1926, 
        "typef": "apt"
    }, 
    {
        "lat": 37.2700523, 
        "lng": 127.0517634, 
        "name": " 경기도 수원시 영통구 매탄동 50 0 극동", 
        "rn": 3149, 
        "typef": "apt"
    }, 
    {
        "lat": 37.0060609, 
        "lng": 127.2717333, 
        "name": " 경기도 안성시 동본동 89 5 벨라스", 
        "rn": 2259, 
        "typef": "apt"
    }, 
    {
        "lat": 37.4075396, 
        "lng": 126.9473476, 
        "name": " 경기도 안양시 동안구 비산동 1022 2 덕원8", 
        "rn": 3435, 
        "typef": "apt"
    }, 
    {
        "lat": 37.615397, 
        "lng": 126.8451071, 
        "name": " 경기도 고양시 덕양구 행신동 799 0 소만마을", 
        "rn": 4113, 
        "typef": "apt"
    }, 
    {
        "lat": 38.0154359, 
        "lng": 127.0664167, 
        "name": " 경기도 연천군 전곡읍 전곡리 267 6 진상", 
        "rn": 259, 
        "typef": "apt"
    }, 
    {
        "lat": 37.2558923, 
        "lng": 127.1414775, 
        "name": " 경기도 용인시 기흥구 상하동 652 0 쌍용스윗닷홈(2단지)", 
        "rn": 2489, 
        "typef": "apt"
    }, 
    {
        "lat": 37.4350687, 
        "lng": 126.7971072, 
        "name": " 경기도 시흥시 은행동 241 1 산호", 
        "rn": 971, 
        "typef": "apt"
    }, 
    {
        "lat": 37.3040001, 
        "lng": 126.8482882, 
        "name": "성안중학교", 
        "rn": 1605, 
        "typef": "sch"
    }, 
    {
        "lat": 37.6614478, 
        "lng": 127.2453967, 
        "name": " 경기도 남양주시 호평동 613 0 호평마을대주파크빌", 
        "rn": 3047, 
        "typef": "apt"
    }, 
    {
        "lat": 37.4292638, 
        "lng": 127.1300251, 
        "name": " 경기도 성남시 중원구 하대원동 100 3 와이엠프라젠", 
        "rn": 4859, 
        "typef": "apt"
    }, 
    {
        "lat": 37.3847006, 
        "lng": 126.9512138, 
        "name": " 경기도 안양시 동안구 호계동 923 21 신성미소지움", 
        "rn": 4330, 
        "typef": "apt"
    }, 
    {
        "lat": 37.3897756, 
        "lng": 126.9464826, 
        "name": " 경기도 안양시 동안구 호계동 903 16 리츠팰리스", 
        "rn": 1191, 
        "typef": "apt"
    }, 
    {
        "lat": 37.526218, 
        "lng": 126.799125, 
        "name": " 경기도 부천시 오정구 원종동 138 12 문화4유림", 
        "rn": 747, 
        "typef": "apt"
    }, 
    {
        "lat": 37.3329683, 
        "lng": 127.1282548, 
        "name": " 경기도 용인시 수지구 죽전동 1113 0 롯데빌리지(102동)", 
        "rn": 2751, 
        "typef": "apt"
    }, 
    {
        "lat": 37.3935115, 
        "lng": 127.0014203, 
        "name": " 경기도 의왕시 청계동 966 0 휴먼시아청계마을(4단지)", 
        "rn": 5532, 
        "typef": "apt"
    }, 
    {
        "lat": 37.2377369, 
        "lng": 127.1704115, 
        "name": " 경기도 용인시 처인구 삼가동 550 0 늘푸른오스카빌3단지", 
        "rn": 2932, 
        "typef": "apt"
    }, 
    {
        "lat": 37.2714577, 
        "lng": 127.0281553, 
        "name": " 경기도 수원시 팔달구 인계동 209 7 CJ아파트 101동", 
        "rn": 3131, 
        "typef": "apt"
    }, 
    {
        "lat": 37.2665874, 
        "lng": 126.9748837, 
        "name": " 경기도 수원시 권선구 탑동 869 6 대건칸타빌", 
        "rn": 1485, 
        "typef": "apt"
    }, 
    {
        "lat": 37.1321066, 
        "lng": 126.9199753, 
        "name": "향남중학교", 
        "rn": 1327, 
        "typef": "sch"
    }, 
    {
        "lat": 36.991514, 
        "lng": 126.895915, 
        "name": " 경기도 평택시 포승읍 석정리 278 3 안중플러스빌(평생)", 
        "rn": 1151, 
        "typef": "apt"
    }, 
    {
        "lat": 37.3780445, 
        "lng": 126.9574319, 
        "name": " 경기도 안양시 동안구 호계동 1075 0 무궁화태영", 
        "rn": 5211, 
        "typef": "apt"
    }, 
    {
        "lat": 37.3855729, 
        "lng": 126.9188756, 
        "name": " 경기도 안양시 만안구 안양동 1036 1 장은한양", 
        "rn": 3674, 
        "typef": "apt"
    }, 
    {
        "lat": 37.651065, 
        "lng": 127.2335006, 
        "name": " 경기도 남양주시 평내동 230 3 희망", 
        "rn": 31, 
        "typef": "apt"
    }, 
    {
        "lat": 37.3855729, 
        "lng": 126.9188756, 
        "name": " 경기도 안양시 만안구 안양동 613 21 동명", 
        "rn": 1682, 
        "typef": "apt"
    }, 
    {
        "lat": 37.1927378, 
        "lng": 127.0753719, 
        "name": " 경기도 화성시 반송동 215 0 나루마을신도브래뉴", 
        "rn": 4624, 
        "typef": "apt"
    }, 
    {
        "lat": 37.2164348, 
        "lng": 127.0447001, 
        "name": " 경기도 화성시 진안동 911 0 진안골마을주공11단지", 
        "rn": 3634, 
        "typef": "apt"
    }, 
    {
        "lat": 37.3029745, 
        "lng": 127.0801141, 
        "name": " 경기도 용인시 수지구 상현동 832 0 상현마을금호베스트빌2단지", 
        "rn": 1747, 
        "typef": "apt"
    }, 
    {
        "lat": 37.3338963, 
        "lng": 127.1122379, 
        "name": " 경기도 용인시 수지구 죽전동 1154 0 현인마을 이-편한세상3차", 
        "rn": 5569, 
        "typef": "apt"
    }, 
    {
        "lat": 36.9912102, 
        "lng": 127.0737913, 
        "name": " 경기도 평택시 통복동 35 3 동아", 
        "rn": 954, 
        "typef": "apt"
    }, 
    {
        "lat": 37.0020802, 
        "lng": 127.0889853, 
        "name": " 경기도 평택시 통복동 539 5 신명보람", 
        "rn": 1408, 
        "typef": "apt"
    }, 
    {
        "lat": 37.3247753, 
        "lng": 127.1143729, 
        "name": " 경기도 용인시 수지구 죽전동 414 0 도담마을7단지 뜨리에체", 
        "rn": 5198, 
        "typef": "apt"
    }, 
    {
        "lat": 37.2490526, 
        "lng": 127.0249436, 
        "name": " 경기도 수원시 권선구 권선동 1330 0 권선자이e편한세상", 
        "rn": 4378, 
        "typef": "apt"
    }, 
    {
        "lat": 37.283, 
        "lng": 127.1607297, 
        "name": " 경기도 용인시 기흥구 동백동 599 0 백현마을모아미래도(C3-1)", 
        "rn": 4411, 
        "typef": "apt"
    }, 
    {
        "lat": 37.6131141, 
        "lng": 127.1363296, 
        "name": " 경기도 구리시 인창동 480 0 우방 아이쉘유", 
        "rn": 4111, 
        "typef": "apt"
    }, 
    {
        "lat": 37.6438109, 
        "lng": 127.2381191, 
        "name": " 경기도 남양주시 평내동 602 0 평내마을평내2차대주파크빌", 
        "rn": 3349, 
        "typef": "apt"
    }, 
    {
        "lat": 37.3938524, 
        "lng": 126.9453086, 
        "name": "안양부흥중학교", 
        "rn": 269, 
        "typef": "sch"
    }, 
    {
        "lat": 37.7405827, 
        "lng": 127.2204012, 
        "name": "광릉중학교", 
        "rn": 2503, 
        "typef": "sch"
    }, 
    {
        "lat": 37.081876, 
        "lng": 126.8092824, 
        "name": " 경기도 화성시 우정읍 조암리 484 1 금광", 
        "rn": 1062, 
        "typef": "apt"
    }, 
    {
        "lat": 37.6232826, 
        "lng": 126.8444516, 
        "name": " 경기도 고양시 덕양구 행신동 220 0 행신동문", 
        "rn": 3439, 
        "typef": "apt"
    }, 
    {
        "lat": 37.7360646, 
        "lng": 127.4307827, 
        "name": " 경기도 가평군 청평면 청평리 626 8 로얄", 
        "rn": 600, 
        "typef": "apt"
    }, 
    {
        "lat": 37.57342999999999, 
        "lng": 127.3446625, 
        "name": " 경기도 양평군 양서면 양수리 621 13 삼익", 
        "rn": 2754, 
        "typef": "apt"
    }, 
    {
        "lat": 37.6670033, 
        "lng": 126.7955374, 
        "name": " 경기도 고양시 일산동구 풍동 1283 0 숲속마을3단지(뜨란채)", 
        "rn": 3926, 
        "typef": "apt"
    }, 
    {
        "lat": 37.3589507, 
        "lng": 126.9663407, 
        "name": " 경기도 의왕시 오전동 838 3 국화뉴서울", 
        "rn": 4638, 
        "typef": "apt"
    }, 
    {
        "lat": 37.3074042, 
        "lng": 127.0867405, 
        "name": " 경기도 용인시 수지구 상현동 852 0 만현마을쌍용3차", 
        "rn": 2286, 
        "typef": "apt"
    }, 
    {
        "lat": 37.7914427, 
        "lng": 126.7463459, 
        "name": " 경기도 파주시 검산동 130 8 성원", 
        "rn": 756, 
        "typef": "apt"
    }, 
    {
        "lat": 37.8496314, 
        "lng": 127.1882447, 
        "name": "경북중학교", 
        "rn": 930, 
        "typef": "sch"
    }, 
    {
        "lat": 37.0785457, 
        "lng": 127.0626032, 
        "name": " 경기도 평택시 지산동 1089 0 현대(지산)", 
        "rn": 1064, 
        "typef": "apt"
    }, 
    {
        "lat": 37.4957079, 
        "lng": 126.7525733, 
        "name": " 경기도 부천시 원미구 상동 393 0 한아름마을(동성)", 
        "rn": 4670, 
        "typef": "apt"
    }, 
    {
        "lat": 37.8899792, 
        "lng": 127.0643046, 
        "name": " 경기도 동두천시 지행동 292 10 하이텍(292-10)", 
        "rn": 210, 
        "typef": "apt"
    }, 
    {
        "lat": 37.3480093, 
        "lng": 126.9409081, 
        "name": " 경기도 군포시 당동 949 1 무지개마을마젤리안", 
        "rn": 254, 
        "typef": "apt"
    }, 
    {
        "lat": 37.487116, 
        "lng": 126.8081119, 
        "name": " 경기도 부천시 원미구 역곡동 74 2 역곡역이편한세상", 
        "rn": 5356, 
        "typef": "apt"
    }, 
    {
        "lat": 37.1994932, 
        "lng": 126.8311887, 
        "name": " 경기도 화성시 남양읍 신남리 1563 0 대광파인밸리골드", 
        "rn": 1523, 
        "typef": "apt"
    }, 
    {
        "lat": 37.2906602, 
        "lng": 127.1300277, 
        "name": " 경기도 용인시 기흥구 언남동 490 0 언동마을신일푸른솔", 
        "rn": 2839, 
        "typef": "apt"
    }, 
    {
        "lat": 37.4867293, 
        "lng": 126.8128388, 
        "name": " 경기도 부천시 원미구 역곡동 111 2 청도포그니에", 
        "rn": 4882, 
        "typef": "apt"
    }, 
    {
        "lat": 37.2877553, 
        "lng": 127.4555389, 
        "name": "증포중학교", 
        "rn": 969, 
        "typef": "sch"
    }, 
    {
        "lat": 37.4676844, 
        "lng": 126.8672002, 
        "name": " 경기도 광명시 하안동 864 0 이편한세상센트레빌", 
        "rn": 5493, 
        "typef": "apt"
    }, 
    {
        "lat": 37.5269037, 
        "lng": 126.8231051, 
        "name": " 경기도 부천시 오정구 고강동 409 5 홍익", 
        "rn": 1740, 
        "typef": "apt"
    }, 
    {
        "lat": 37.2951201, 
        "lng": 126.8210122, 
        "name": "안산해양중학교", 
        "rn": 211, 
        "typef": "sch"
    }, 
    {
        "lat": 37.4139187, 
        "lng": 127.2495577, 
        "name": " 경기도 광주시 경안동 127 0 두진", 
        "rn": 1743, 
        "typef": "apt"
    }, 
    {
        "lat": 37.2341089, 
        "lng": 127.2026535, 
        "name": " 경기도 용인시 처인구 김량장동 340 2 글로하임(A동)", 
        "rn": 4545, 
        "typef": "apt"
    }, 
    {
        "lat": 37.293251, 
        "lng": 126.8206195, 
        "name": " 경기도 안산시 상록구 사동 1511 0 안산고잔9차푸르지오", 
        "rn": 4641, 
        "typef": "apt"
    }, 
    {
        "lat": 37.3290605, 
        "lng": 127.1264906, 
        "name": " 경기도 용인시 수지구 죽전동 895 2 한솔노블(111동)", 
        "rn": 2855, 
        "typef": "apt"
    }, 
    {
        "lat": 37.5211628, 
        "lng": 126.8073499, 
        "name": " 경기도 부천시 오정구 원종동 363 7 인수", 
        "rn": 3320, 
        "typef": "apt"
    }, 
    {
        "lat": 37.52635050000001, 
        "lng": 126.8081101, 
        "name": " 경기도 부천시 오정구 원종동 270 5 서림(A,B)", 
        "rn": 284, 
        "typef": "apt"
    }, 
    {
        "lat": 37.7507828, 
        "lng": 126.7746472, 
        "name": " 경기도 파주시 금촌동 1008 0 풍림아이원(1008-0)", 
        "rn": 2198, 
        "typef": "apt"
    }, 
    {
        "lat": 37.4478976, 
        "lng": 126.7929429, 
        "name": " 경기도 시흥시 대야동 278 0 벽산", 
        "rn": 2821, 
        "typef": "apt"
    }, 
    {
        "lat": 37.5792528, 
        "lng": 127.2165066, 
        "name": " 경기도 남양주시 와부읍 도곡리 986 1 덕소두산위브", 
        "rn": 3101, 
        "typef": "apt"
    }, 
    {
        "lat": 37.60821140000001, 
        "lng": 127.1517743, 
        "name": " 경기도 남양주시 도농동 68 1 성창빌라트", 
        "rn": 1795, 
        "typef": "apt"
    }, 
    {
        "lat": 37.7427761, 
        "lng": 126.8261956, 
        "name": " 경기도 파주시 조리읍 봉일천리 157 4 강실(157-4)", 
        "rn": 596, 
        "typef": "apt"
    }, 
    {
        "lat": 37.3437192, 
        "lng": 126.9438083, 
        "name": " 경기도 군포시 당동 885 0 주공4(885)", 
        "rn": 4783, 
        "typef": "apt"
    }, 
    {
        "lat": 37.7390641, 
        "lng": 127.2016981, 
        "name": " 경기도 남양주시 진접읍 부평리 758 0 진접센트레빌시티3단지", 
        "rn": 1475, 
        "typef": "apt"
    }, 
    {
        "lat": 37.38147590000001, 
        "lng": 126.7956954, 
        "name": " 경기도 시흥시 장현동 546 1 드림펠리스", 
        "rn": 2802, 
        "typef": "apt"
    }, 
    {
        "lat": 37.2808595, 
        "lng": 127.159274, 
        "name": " 경기도 용인시 기흥구 동백동 661 0 백현마을코아루", 
        "rn": 3869, 
        "typef": "apt"
    }, 
    {
        "lat": 37.2781981, 
        "lng": 127.4490945, 
        "name": " 경기도 이천시 창전동 469 6 한솔스파빌(102)", 
        "rn": 1906, 
        "typef": "apt"
    }, 
    {
        "lat": 37.2980237, 
        "lng": 127.6371628, 
        "name": " 경기도 여주시 홍문동 303 8 반석", 
        "rn": 822, 
        "typef": "apt"
    }, 
    {
        "lat": 37.57872770000001, 
        "lng": 127.2199391, 
        "name": " 경기도 남양주시 와부읍 도곡리 993 0 덕소쌍용", 
        "rn": 3117, 
        "typef": "apt"
    }, 
    {
        "lat": 37.27852439999999, 
        "lng": 127.1572003, 
        "name": " 경기도 용인시 기흥구 중동 874 0 백현마을 동일하이빌", 
        "rn": 4427, 
        "typef": "apt"
    }, 
    {
        "lat": 37.6208964, 
        "lng": 126.7010614, 
        "name": "감정중학교", 
        "rn": 1165, 
        "typef": "sch"
    }, 
    {
        "lat": 37.336697, 
        "lng": 127.2434822, 
        "name": " 경기도 용인시 처인구 모현면 일산리 669 0 신안인스빌1단지", 
        "rn": 1689, 
        "typef": "apt"
    }, 
    {
        "lat": 37.3364739, 
        "lng": 127.2455135, 
        "name": " 경기도 용인시 처인구 모현면 일산리 671 0 신안인스빌2단지", 
        "rn": 1994, 
        "typef": "apt"
    }, 
    {
        "lat": 37.3375855, 
        "lng": 126.7774459, 
        "name": " 경기도 안산시 단원구 신길동 1438 0 삼익", 
        "rn": 2096, 
        "typef": "apt"
    }, 
    {
        "lat": 37.6910041, 
        "lng": 126.7206709, 
        "name": " 경기도 고양시 일산서구 가좌동 1087 0 가좌마을5단지 벽산", 
        "rn": 2568, 
        "typef": "apt"
    }, 
    {
        "lat": 37.52511620000001, 
        "lng": 126.8006484, 
        "name": " 경기도 부천시 오정구 원종동 207 0 삼신12", 
        "rn": 1420, 
        "typef": "apt"
    }, 
    {
        "lat": 37.2846233, 
        "lng": 127.0353211, 
        "name": " 경기도 수원시 팔달구 우만동 533 1 동도센트리움", 
        "rn": 4731, 
        "typef": "apt"
    }, 
    {
        "lat": 37.2165091, 
        "lng": 126.977719, 
        "name": " 경기도 화성시 봉담읍 와우리 237 0 신일 해피트리2차", 
        "rn": 2163, 
        "typef": "apt"
    }, 
    {
        "lat": 37.3447819, 
        "lng": 126.9423397, 
        "name": " 경기도 군포시 당동 873 0 쌍용(873)", 
        "rn": 4187, 
        "typef": "apt"
    }, 
    {
        "lat": 37.0096593, 
        "lng": 127.0756628, 
        "name": " 경기도 평택시 세교동 435 84 범양", 
        "rn": 150, 
        "typef": "apt"
    }, 
    {
        "lat": 37.3750927, 
        "lng": 126.9651425, 
        "name": " 경기도 안양시 동안구 호계동 1121 0 샘마을대우", 
        "rn": 4695, 
        "typef": "apt"
    }, 
    {
        "lat": 37.3196623, 
        "lng": 127.0919751, 
        "name": " 경기도 용인시 수지구 풍덕천동 1104 0 신정마을주공9", 
        "rn": 5027, 
        "typef": "apt"
    }, 
    {
        "lat": 37.7509556, 
        "lng": 126.7696164, 
        "name": " 경기도 파주시 금촌동 1022 0 후곡마을주공6단지", 
        "rn": 2861, 
        "typef": "apt"
    }, 
    {
        "lat": 37.6381161, 
        "lng": 127.2998882, 
        "name": " 경기도 남양주시 화도읍 차산리 874 0 신창현풍림아이원2차", 
        "rn": 2251, 
        "typef": "apt"
    }, 
    {
        "lat": 37.3516838, 
        "lng": 127.1056794, 
        "name": " 경기도 성남시 분당구 금곡동 208 0 삼라마이다스빌", 
        "rn": 5344, 
        "typef": "apt"
    }, 
    {
        "lat": 37.6916952, 
        "lng": 127.2132126, 
        "name": " 경기도 남양주시 오남읍 오남리 222 0 동부", 
        "rn": 729, 
        "typef": "apt"
    }, 
    {
        "lat": 37.2076915, 
        "lng": 127.0715586, 
        "name": " 경기도 화성시 반송동 83 0 시범한빛마을삼부르네상스", 
        "rn": 5109, 
        "typef": "apt"
    }, 
    {
        "lat": 37.6887298, 
        "lng": 126.7783448, 
        "name": " 경기도 고양시 일산동구 중산동 1566 0 중산마을10(경남)", 
        "rn": 3141, 
        "typef": "apt"
    }, 
    {
        "lat": 37.4705189, 
        "lng": 126.8130743, 
        "name": " 경기도 부천시 소사구 범박동 150 2 현대홈타운1-6", 
        "rn": 4535, 
        "typef": "apt"
    }, 
    {
        "lat": 37.6777944, 
        "lng": 126.7642541, 
        "name": " 경기도 고양시 일산서구 일산동 1058 0 후곡마을(럭키)", 
        "rn": 4837, 
        "typef": "apt"
    }, 
    {
        "lat": 37.3681889, 
        "lng": 126.9406294, 
        "name": " 경기도 군포시 산본동 1030 2 세경싸이버빌(103)", 
        "rn": 4413, 
        "typef": "apt"
    }, 
    {
        "lat": 37.6491928, 
        "lng": 126.8477846, 
        "name": " 경기도 고양시 덕양구 성사동 501 2 명지캐럿86", 
        "rn": 2841, 
        "typef": "apt"
    }, 
    {
        "lat": 37.659437, 
        "lng": 126.8296761, 
        "name": " 경기도 고양시 덕양구 주교동 313 1 서초", 
        "rn": 1619, 
        "typef": "apt"
    }, 
    {
        "lat": 37.5462099, 
        "lng": 127.3196565, 
        "name": " 경기도 양평군 양서면 양수리 575 8 랑데뷰(B동)", 
        "rn": 3756, 
        "typef": "apt"
    }, 
    {
        "lat": 37.3365434, 
        "lng": 126.7752216, 
        "name": " 경기도 안산시 단원구 신길동 1445 0 두산위브", 
        "rn": 4286, 
        "typef": "apt"
    }, 
    {
        "lat": 37.2444956, 
        "lng": 127.2309547, 
        "name": " 경기도 용인시 처인구 고림동 997 0 예진마을", 
        "rn": 1514, 
        "typef": "apt"
    }, 
    {
        "lat": 37.291855, 
        "lng": 126.8502621, 
        "name": " 경기도 안산시 상록구 사동 1345 0 선경", 
        "rn": 3255, 
        "typef": "apt"
    }, 
    {
        "lat": 37.2766198, 
        "lng": 127.1111632, 
        "name": " 경기도 용인시 기흥구 구갈동 404 2 우림", 
        "rn": 3152, 
        "typef": "apt"
    }, 
    {
        "lat": 37.6321086, 
        "lng": 126.8330706, 
        "name": " 경기도 고양시 덕양구 화정동 977 1 삼라마이다스빌", 
        "rn": 3465, 
        "typef": "apt"
    }, 
    {
        "lat": 37.4522545, 
        "lng": 126.8826818, 
        "name": " 경기도 광명시 소하동 1288 0 광명소하휴먼시아2단지", 
        "rn": 5164, 
        "typef": "apt"
    }, 
    {
        "lat": 37.0503234, 
        "lng": 127.0611978, 
        "name": " 경기도 평택시 장당동 633 0 우미이노스빌1차", 
        "rn": 2635, 
        "typef": "apt"
    }, 
    {
        "lat": 37.4735565, 
        "lng": 127.3195649, 
        "name": "광수중학교", 
        "rn": 2538, 
        "typef": "sch"
    }, 
    {
        "lat": 37.6420098, 
        "lng": 127.2363086, 
        "name": " 경기도 남양주시 평내동 564 0 평내화성파크힐즈", 
        "rn": 2785, 
        "typef": "apt"
    }, 
    {
        "lat": 37.1994932, 
        "lng": 126.8311887, 
        "name": " 경기도 화성시 남양읍 무송리 642 0 금광포란재", 
        "rn": 277, 
        "typef": "apt"
    }, 
    {
        "lat": 37.5163927, 
        "lng": 126.8076124, 
        "name": " 경기도 부천시 오정구 작동 75 0 적성-1", 
        "rn": 1665, 
        "typef": "apt"
    }, 
    {
        "lat": 37.23743169999999, 
        "lng": 127.1713468, 
        "name": " 경기도 용인시 처인구 삼가동 551 0 늘푸른오스카빌2단지", 
        "rn": 3537, 
        "typef": "apt"
    }, 
    {
        "lat": 37.3664365, 
        "lng": 126.9398457, 
        "name": " 경기도 군포시 금정동 704 0 금정동쌍용", 
        "rn": 5236, 
        "typef": "apt"
    }, 
    {
        "lat": 37.6316444, 
        "lng": 126.6857315, 
        "name": " 경기도 김포시 감정동 521 1 희영(무지개)", 
        "rn": 1172, 
        "typef": "apt"
    }, 
    {
        "lat": 37.3740658, 
        "lng": 126.8128589, 
        "name": " 경기도 시흥시 능곡동 493 0 우남퍼스트빌", 
        "rn": 3896, 
        "typef": "apt"
    }, 
    {
        "lat": 37.4649476, 
        "lng": 126.867922, 
        "name": "하안북중학교", 
        "rn": 778, 
        "typef": "sch"
    }, 
    {
        "lat": 37.6914139, 
        "lng": 127.2131918, 
        "name": " 경기도 남양주시 오남읍 오남리 683 5 진주(1단지)", 
        "rn": 155, 
        "typef": "apt"
    }, 
    {
        "lat": 37.3555584, 
        "lng": 126.9434223, 
        "name": " 경기도 군포시 당동 737 7 삼성미도2", 
        "rn": 4207, 
        "typef": "apt"
    }, 
    {
        "lat": 37.0705853, 
        "lng": 127.0551139, 
        "name": " 경기도 평택시 서정동 784 0 대옥7", 
        "rn": 566, 
        "typef": "apt"
    }, 
    {
        "lat": 37.0571919, 
        "lng": 127.0563482, 
        "name": " 경기도 평택시 이충동 463 25 스카이빌", 
        "rn": 4050, 
        "typef": "apt"
    }, 
    {
        "lat": 37.6996116, 
        "lng": 126.846275, 
        "name": " 경기도 고양시 일산동구 사리현동 186 0 동문1단지", 
        "rn": 1553, 
        "typef": "apt"
    }, 
    {
        "lat": 37.4675923, 
        "lng": 126.800718, 
        "name": " 경기도 부천시 소사구 소사본동 403 0 두산", 
        "rn": 1745, 
        "typef": "apt"
    }, 
    {
        "lat": 37.5934288, 
        "lng": 127.1425905, 
        "name": " 경기도 구리시 수택동 611 3 다성2차", 
        "rn": 1230, 
        "typef": "apt"
    }, 
    {
        "lat": 37.4878994, 
        "lng": 126.7804683, 
        "name": " 경기도 부천시 원미구 심곡동 380 11 동보프리미아", 
        "rn": 3251, 
        "typef": "apt"
    }, 
    {
        "lat": 37.3320489, 
        "lng": 127.0960328, 
        "name": " 경기도 용인시 수지구 풍덕천동 664 0 삼익", 
        "rn": 4326, 
        "typef": "apt"
    }, 
    {
        "lat": 37.5870662, 
        "lng": 127.1923231, 
        "name": " 경기도 하남시 선동 423 0 미사강변도시9단지", 
        "rn": 3416, 
        "typef": "apt"
    }, 
    {
        "lat": 37.2490286, 
        "lng": 127.1099826, 
        "name": " 경기도 용인시 기흥구 보라동 617 0 한보라마을휴먼시아5단지", 
        "rn": 4392, 
        "typef": "apt"
    }, 
    {
        "lat": 37.7861473, 
        "lng": 126.9937207, 
        "name": " 경기도 양주시 백석읍 복지리 94 0 가야1", 
        "rn": 226, 
        "typef": "apt"
    }, 
    {
        "lat": 37.335881, 
        "lng": 126.7821972, 
        "name": " 경기도 안산시 단원구 신길동 1518 0 휴먼시아3단지", 
        "rn": 4251, 
        "typef": "apt"
    }, 
    {
        "lat": 37.3319854, 
        "lng": 126.8065636, 
        "name": " 경기도 안산시 단원구 선부동 953 0 군자주공6", 
        "rn": 556, 
        "typef": "apt"
    }, 
    {
        "lat": 37.4420291, 
        "lng": 127.1346746, 
        "name": " 경기도 성남시 수정구 태평동 3659 0 태평동낙원스카이뷰", 
        "rn": 5239, 
        "typef": "apt"
    }, 
    {
        "lat": 37.2014565, 
        "lng": 126.9765692, 
        "name": " 경기도 화성시 봉담읍 수기리 31 13 푸른들미 102동", 
        "rn": 526, 
        "typef": "apt"
    }, 
    {
        "lat": 37.3363875, 
        "lng": 127.118105, 
        "name": " 경기도 성남시 분당구 구미동 213 0 무지개(금강)센테리움", 
        "rn": 5497, 
        "typef": "apt"
    }, 
    {
        "lat": 37.9043648, 
        "lng": 127.0629932, 
        "name": " 경기도 동두천시 생연동 464 9 우성", 
        "rn": 244, 
        "typef": "apt"
    }, 
    {
        "lat": 37.3855729, 
        "lng": 126.9188756, 
        "name": " 경기도 안양시 만안구 안양동 432 3 미주", 
        "rn": 1612, 
        "typef": "apt"
    }, 
    {
        "lat": 37.3025762, 
        "lng": 127.1187109, 
        "name": " 경기도 용인시 기흥구 마북동 638 0 교동마을 구성자이3차", 
        "rn": 3371, 
        "typef": "apt"
    }, 
    {
        "lat": 37.202769, 
        "lng": 127.0684906, 
        "name": " 경기도 화성시 반송동 98 0 METAPOLIS", 
        "rn": 4103, 
        "typef": "apt"
    }, 
    {
        "lat": 37.2650969, 
        "lng": 127.0640626, 
        "name": " 경기도 수원시 영통구 원천동 333 3 삼성1", 
        "rn": 2433, 
        "typef": "apt"
    }, 
    {
        "lat": 37.2782054, 
        "lng": 127.44796, 
        "name": " 경기도 이천시 창전동 470 16 한솔스파빌(101)", 
        "rn": 2829, 
        "typef": "apt"
    }, 
    {
        "lat": 37.629191, 
        "lng": 126.7062177, 
        "name": " 경기도 김포시 북변동 184 0 한일", 
        "rn": 742, 
        "typef": "apt"
    }, 
    {
        "lat": 37.3855729, 
        "lng": 126.9188756, 
        "name": " 경기도 안양시 만안구 안양동 28 13 시티블레스", 
        "rn": 4309, 
        "typef": "apt"
    }, 
    {
        "lat": 37.7351108, 
        "lng": 127.0630256, 
        "name": " 경기도 의정부시 신곡동 725 3 장암주공5", 
        "rn": 2394, 
        "typef": "apt"
    }, 
    {
        "lat": 37.4363807, 
        "lng": 126.7980184, 
        "name": " 경기도 시흥시 은행동 99 16 광덕2", 
        "rn": 2642, 
        "typef": "apt"
    }, 
    {
        "lat": 37.7263778, 
        "lng": 127.0535683, 
        "name": " 경기도 의정부시 장암동 14 126 삼환나우빌", 
        "rn": 3321, 
        "typef": "apt"
    }, 
    {
        "lat": 37.3801416, 
        "lng": 126.9511576, 
        "name": " 경기도 안양시 동안구 호계동 931 0 삼성(931)", 
        "rn": 3860, 
        "typef": "apt"
    }, 
    {
        "lat": 37.3884646, 
        "lng": 126.9640705, 
        "name": " 경기도 안양시 동안구 평촌동 118 5 삼아", 
        "rn": 5178, 
        "typef": "apt"
    }, 
    {
        "lat": 37.3779086, 
        "lng": 127.1293383, 
        "name": " 경기도 성남시 분당구 서현동 92 0 시범현대", 
        "rn": 5467, 
        "typef": "apt"
    }, 
    {
        "lat": 37.7520003, 
        "lng": 127.0376623, 
        "name": " 경기도 의정부시 가능동 620 12 희망", 
        "rn": 190, 
        "typef": "apt"
    }, 
    {
        "lat": 37.6983291, 
        "lng": 127.1993716, 
        "name": " 경기도 남양주시 오남읍 양지리 109 0 양지현대", 
        "rn": 703, 
        "typef": "apt"
    }, 
    {
        "lat": 37.5272385, 
        "lng": 126.8013, 
        "name": " 경기도 부천시 오정구 원종동 131 0 광성", 
        "rn": 196, 
        "typef": "apt"
    }, 
    {
        "lat": 37.2753454, 
        "lng": 127.1290697, 
        "name": " 경기도 용인시 기흥구 구갈동 574 0 강남마을주공", 
        "rn": 4425, 
        "typef": "apt"
    }, 
    {
        "lat": 37.3549004, 
        "lng": 126.7210621, 
        "name": " 경기도 시흥시 정왕동 1863 0 대림1", 
        "rn": 1776, 
        "typef": "apt"
    }, 
    {
        "lat": 37.4986253, 
        "lng": 126.7786011, 
        "name": " 경기도 부천시 원미구 중동 1111 0 위브더스테이트(E3)", 
        "rn": 4666, 
        "typef": "apt"
    }, 
    {
        "lat": 37.3638121, 
        "lng": 126.9396817, 
        "name": " 경기도 군포시 금정동 710 0 상안", 
        "rn": 2649, 
        "typef": "apt"
    }, 
    {
        "lat": 37.5989141, 
        "lng": 127.1331825, 
        "name": " 경기도 구리시 교문동 220 2 B.J빌(105동)", 
        "rn": 4504, 
        "typef": "apt"
    }, 
    {
        "lat": 37.6941722, 
        "lng": 126.7571678, 
        "name": " 경기도 고양시 일산서구 덕이동 1521 0 태영", 
        "rn": 2115, 
        "typef": "apt"
    }, 
    {
        "lat": 37.723699, 
        "lng": 126.7216298, 
        "name": " 경기도 파주시 동패동 1702 0 진흥효자(1702)", 
        "rn": 2412, 
        "typef": "apt"
    }, 
    {
        "lat": 37.8583522, 
        "lng": 126.7799334, 
        "name": " 경기도 파주시 문산읍 문산리 97 0 장안8차", 
        "rn": 1030, 
        "typef": "apt"
    }, 
    {
        "lat": 37.4318732, 
        "lng": 127.000025, 
        "name": " 경기도 과천시 부림동 49 0 주공7", 
        "rn": 5413, 
        "typef": "apt"
    }, 
    {
        "lat": 37.4202379, 
        "lng": 126.7970507, 
        "name": " 경기도 시흥시 미산동 64 0 경신", 
        "rn": 385, 
        "typef": "apt"
    }, 
    {
        "lat": 37.7364189, 
        "lng": 127.0856339, 
        "name": " 경기도 의정부시 용현동 33 3 장미2", 
        "rn": 1385, 
        "typef": "apt"
    }, 
    {
        "lat": 37.6611029, 
        "lng": 127.3048067, 
        "name": " 경기도 남양주시 화도읍 마석우리 598 0 마석역신도브래뉴", 
        "rn": 1577, 
        "typef": "apt"
    }, 
    {
        "lat": 37.3070247, 
        "lng": 127.0780026, 
        "name": " 경기도 용인시 수지구 상현동 867 0 서원마을5단지금호베스트빌5", 
        "rn": 3119, 
        "typef": "apt"
    }, 
    {
        "lat": 37.31092200000001, 
        "lng": 126.8432867, 
        "name": " 경기도 안산시 상록구 이동 664 0 주공그린빌10단지", 
        "rn": 5048, 
        "typef": "apt"
    }, 
    {
        "lat": 37.6283676, 
        "lng": 127.20247, 
        "name": " 경기도 남양주시 금곡동 603 0 금곡gs", 
        "rn": 2016, 
        "typef": "apt"
    }, 
    {
        "lat": 37.4831486, 
        "lng": 126.8166109, 
        "name": " 경기도 부천시 소사구 괴안동 165 0 성우", 
        "rn": 1108, 
        "typef": "apt"
    }, 
    {
        "lat": 37.284782, 
        "lng": 127.4390118, 
        "name": " 경기도 이천시 창전동 410 0 한신", 
        "rn": 1452, 
        "typef": "apt"
    }, 
    {
        "lat": 37.6628786, 
        "lng": 127.2997418, 
        "name": " 경기도 남양주시 화도읍 묵현리 625 0 마석역신도브래뉴2차", 
        "rn": 1607, 
        "typef": "apt"
    }, 
    {
        "lat": 37.400587, 
        "lng": 126.9576133, 
        "name": " 경기도 안양시 동안구 관양동 1587 0 공작럭키", 
        "rn": 5412, 
        "typef": "apt"
    }, 
    {
        "lat": 37.4807134, 
        "lng": 126.8095602, 
        "name": "부천동중학교", 
        "rn": 2450, 
        "typef": "sch"
    }, 
    {
        "lat": 37.1389588, 
        "lng": 127.0771761, 
        "name": " 경기도 오산시 원동 551 0 태영", 
        "rn": 1876, 
        "typef": "apt"
    }, 
    {
        "lat": 37.6416691, 
        "lng": 127.3047907, 
        "name": " 경기도 남양주시 화도읍 창현리 777 0 이안남양주", 
        "rn": 1909, 
        "typef": "apt"
    }, 
    {
        "lat": 37.745497, 
        "lng": 127.0588935, 
        "name": " 경기도 의정부시 신곡동 669 0 동성", 
        "rn": 2001, 
        "typef": "apt"
    }, 
    {
        "lat": 37.2558801, 
        "lng": 127.0746628, 
        "name": " 경기도 수원시 영통구 영통동 958 3 영통하우스토리", 
        "rn": 3613, 
        "typef": "apt"
    }, 
    {
        "lat": 37.3720217, 
        "lng": 127.1237036, 
        "name": " 경기도 성남시 분당구 수내동 52 0 파크타운(서안)", 
        "rn": 5541, 
        "typef": "apt"
    }, 
    {
        "lat": 37.6157023, 
        "lng": 126.7259504, 
        "name": " 경기도 김포시 사우동 385 0 길훈4", 
        "rn": 1280, 
        "typef": "apt"
    }, 
    {
        "lat": 37.1512175, 
        "lng": 127.0752332, 
        "name": " 경기도 오산시 오산동 922 2 현대", 
        "rn": 3316, 
        "typef": "apt"
    }, 
    {
        "lat": 36.9998847, 
        "lng": 127.1755957, 
        "name": " 경기도 안성시 공도읍 만정리 880 0 디자인시티블루밍", 
        "rn": 2135, 
        "typef": "apt"
    }, 
    {
        "lat": 37.4206183, 
        "lng": 126.9103405, 
        "name": " 경기도 안양시 만안구 석수동 805 0 주공그린빌", 
        "rn": 5283, 
        "typef": "apt"
    }, 
    {
        "lat": 37.9047709, 
        "lng": 127.0479104, 
        "name": " 경기도 동두천시 상패동 61 0 상패주공", 
        "rn": 249, 
        "typef": "apt"
    }, 
    {
        "lat": 37.2966253, 
        "lng": 127.4390721, 
        "name": " 경기도 이천시 송정동 311 1 신일2차", 
        "rn": 3143, 
        "typef": "apt"
    }, 
    {
        "lat": 37.2029231, 
        "lng": 127.0429396, 
        "name": " 경기도 화성시 병점동 485 0 한신", 
        "rn": 3334, 
        "typef": "apt"
    }, 
    {
        "lat": 37.5774165, 
        "lng": 127.2201916, 
        "name": " 경기도 남양주시 와부읍 도곡리 1010 1 강변해태", 
        "rn": 3709, 
        "typef": "apt"
    }, 
    {
        "lat": 37.57342999999999, 
        "lng": 127.3446625, 
        "name": " 경기도 양평군 양서면 양수리 551 22 성은아파트B동", 
        "rn": 2580, 
        "typef": "apt"
    }, 
    {
        "lat": 37.35101179999999, 
        "lng": 126.9552096, 
        "name": " 경기도 군포시 당정동 987 3 덕산(6,7호)", 
        "rn": 4098, 
        "typef": "apt"
    }, 
    {
        "lat": 37.4499688, 
        "lng": 127.1549009, 
        "name": " 경기도 성남시 수정구 단대동 127 0 희망", 
        "rn": 1570, 
        "typef": "apt"
    }, 
    {
        "lat": 37.3863109, 
        "lng": 127.0726636, 
        "name": " 경기도 성남시 분당구 운중동 918 0 산운마을13단지(태영)일부임대", 
        "rn": 5244, 
        "typef": "apt"
    }, 
    {
        "lat": 37.1291336, 
        "lng": 126.9161488, 
        "name": " 경기도 화성시 향남읍 행정리 438 0 향남지구 우미린아파트", 
        "rn": 3802, 
        "typef": "apt"
    }, 
    {
        "lat": 37.5244095, 
        "lng": 126.7861508, 
        "name": " 경기도 부천시 오정구 오정동 566 4 신한카사피아", 
        "rn": 3411, 
        "typef": "apt"
    }, 
    {
        "lat": 37.3855729, 
        "lng": 126.9188756, 
        "name": " 경기도 안양시 만안구 안양동 622 217 씨티블레스", 
        "rn": 3761, 
        "typef": "apt"
    }, 
    {
        "lat": 37.4068512, 
        "lng": 127.2371025, 
        "name": " 경기도 광주시 장지동 757 0 벽산블루밍2단지", 
        "rn": 2217, 
        "typef": "apt"
    }, 
    {
        "lat": 37.3042402, 
        "lng": 127.047337, 
        "name": " 경기도 수원시 영통구 이의동 1182 0 광교대광로제비앙", 
        "rn": 4445, 
        "typef": "apt"
    }, 
    {
        "lat": 37.3694577, 
        "lng": 127.1728141, 
        "name": " 경기도 광주시 오포읍 신현리 681 4 현대모닝사이드1-B", 
        "rn": 5003, 
        "typef": "apt"
    }, 
    {
        "lat": 37.35101179999999, 
        "lng": 126.9552096, 
        "name": " 경기도 군포시 당정동 990 5 거성", 
        "rn": 3518, 
        "typef": "apt"
    }, 
    {
        "lat": 37.3282782, 
        "lng": 126.8372119, 
        "name": " 경기도 안산시 단원구 고잔동 676 2 주공6", 
        "rn": 2310, 
        "typef": "apt"
    }, 
    {
        "lat": 37.60234130000001, 
        "lng": 126.7759738, 
        "name": " 경기도 김포시 고촌읍 신곡리 469 3 길훈2", 
        "rn": 1814, 
        "typef": "apt"
    }, 
    {
        "lat": 37.2819867, 
        "lng": 127.0283613, 
        "name": " 경기도 수원시 팔달구 지동 138 3 진우", 
        "rn": 1680, 
        "typef": "apt"
    }, 
    {
        "lat": 37.21296640000001, 
        "lng": 126.9707928, 
        "name": " 경기도 화성시 봉담읍 와우리 590 0 봉담아이파크", 
        "rn": 2745, 
        "typef": "apt"
    }, 
    {
        "lat": 37.4359785, 
        "lng": 127.141348, 
        "name": " 경기도 성남시 중원구 성남동 2508 0 보미리전빌3", 
        "rn": 1837, 
        "typef": "apt"
    }, 
    {
        "lat": 37.7251549, 
        "lng": 126.7395262, 
        "name": " 경기도 파주시 목동동 101 0 산내마을11단지현대아이파크", 
        "rn": 1265, 
        "typef": "apt"
    }, 
    {
        "lat": 37.346659, 
        "lng": 126.9809513, 
        "name": " 경기도 의왕시 왕곡동 592 0 인스빌1단지", 
        "rn": 2965, 
        "typef": "apt"
    }, 
    {
        "lat": 37.4084764, 
        "lng": 126.9318391, 
        "name": "임곡중학교", 
        "rn": 735, 
        "typef": "sch"
    }, 
    {
        "lat": 37.362452, 
        "lng": 126.9449828, 
        "name": " 경기도 군포시 금정동 762 5 경아", 
        "rn": 1934, 
        "typef": "apt"
    }, 
    {
        "lat": 37.6698293, 
        "lng": 126.7698292, 
        "name": "발산중학교", 
        "rn": 152, 
        "typef": "sch"
    }, 
    {
        "lat": 37.3576676, 
        "lng": 127.1467618, 
        "name": " 경기도 광주시 오포읍 신현리 1229 0 오포e편한세상", 
        "rn": 3203, 
        "typef": "apt"
    }, 
    {
        "lat": 37.2524485, 
        "lng": 127.0709721, 
        "name": " 경기도 수원시 영통구 영통동 948 4 황골마을주공2", 
        "rn": 4754, 
        "typef": "apt"
    }, 
    {
        "lat": 37.0623596, 
        "lng": 126.8113831, 
        "name": " 경기도 화성시 장안면 사곡리 125 4 진명103동", 
        "rn": 500, 
        "typef": "apt"
    }, 
    {
        "lat": 37.4908526, 
        "lng": 126.8134859, 
        "name": " 경기도 부천시 원미구 역곡동 204 0 예원", 
        "rn": 3078, 
        "typef": "apt"
    }, 
    {
        "lat": 37.6737367, 
        "lng": 126.7361514, 
        "name": " 경기도 고양시 일산서구 대화동 2570 0 대화마을(5단지)", 
        "rn": 3545, 
        "typef": "apt"
    }, 
    {
        "lat": 37.7402865, 
        "lng": 127.0633039, 
        "name": " 경기도 의정부시 신곡동 132 2 파크힐(132-2)", 
        "rn": 2424, 
        "typef": "apt"
    }, 
    {
        "lat": 37.8388228, 
        "lng": 127.5057677, 
        "name": " 경기도 가평군 가평읍 읍내리 799 5 제이정동101동", 
        "rn": 41, 
        "typef": "apt"
    }, 
    {
        "lat": 37.3615642, 
        "lng": 126.9661818, 
        "name": " 경기도 의왕시 오전동 32 83 동남(라동)", 
        "rn": 482, 
        "typef": "apt"
    }, 
    {
        "lat": 37.3929566, 
        "lng": 126.9129579, 
        "name": " 경기도 안양시 만안구 안양동 752 20 신성안양미소지움", 
        "rn": 2929, 
        "typef": "apt"
    }, 
    {
        "lat": 37.6189773, 
        "lng": 126.8404778, 
        "name": " 경기도 고양시 덕양구 행신동 973 0 샘터마을(동신)", 
        "rn": 3436, 
        "typef": "apt"
    }, 
    {
        "lat": 37.3369391, 
        "lng": 126.7720216, 
        "name": " 경기도 안산시 단원구 신길동 1446 0 안산신길온천역휴먼빌", 
        "rn": 3010, 
        "typef": "apt"
    }, 
    {
        "lat": 37.0152968, 
        "lng": 127.2015046, 
        "name": " 경기도 안성시 공도읍 마정리 45 17 로데오", 
        "rn": 280, 
        "typef": "apt"
    }, 
    {
        "lat": 37.3195287, 
        "lng": 127.0763516, 
        "name": "성복중학교", 
        "rn": 139, 
        "typef": "sch"
    }, 
    {
        "lat": 37.5937021, 
        "lng": 127.142875, 
        "name": " 경기도 구리시 수택동 610 1 나래", 
        "rn": 3081, 
        "typef": "apt"
    }, 
    {
        "lat": 37.6987496, 
        "lng": 126.7642295, 
        "name": " 경기도 고양시 일산서구 탄현동 130 0 쌍용스윗닷홈", 
        "rn": 2907, 
        "typef": "apt"
    }, 
    {
        "lat": 37.5003271, 
        "lng": 126.7498232, 
        "name": " 경기도 부천시 원미구 상동 528 1 라일락마을(대우유림)", 
        "rn": 5232, 
        "typef": "apt"
    }, 
    {
        "lat": 37.6296876, 
        "lng": 126.7031186, 
        "name": " 경기도 김포시 북변동 688 0 대우", 
        "rn": 1214, 
        "typef": "apt"
    }, 
    {
        "lat": 37.2481157, 
        "lng": 127.0144054, 
        "name": " 경기도 수원시 권선구 세류동 1147 0 미영", 
        "rn": 1301, 
        "typef": "apt"
    }, 
    {
        "lat": 37.6559792, 
        "lng": 126.7933979, 
        "name": " 경기도 고양시 일산동구 마두동 734 0 백마마을(청구)", 
        "rn": 4193, 
        "typef": "apt"
    },